timestamp,time_utc_usec,lat,lon,alt,alt_ellipsoid,s_variance_m_s,c_variance_rad,eph,epv,hdop,vdop,noise_per_ms,jamming_indicator,vel_m_s,vel_n_m_s,vel_e_m_s,vel_d_m_s,cog_rad,timestamp_time_relative,heading,heading_offset,fix_type,jamming_state,vel_ned_valid,satellites_used,selected
335615430,1696769151199951,634114855,101148320,113929,154405,0.07287598,1.3567913,0.85496026,1.5347537,1.4296875,1.4296875,0,0,1.6216464,-0.216,0.08400001,-1.605,2.7707014,0,nan,nan,3,0,1,16,0
336210578,1696769151799951,634114855,101148341,115759,156235,0.076171875,0.9096125,0.85809565,1.5379318,1.4296875,1.4296875,0,0,3.9725542,0.15400001,0.245,-3.9620001,1.009633,0,nan,nan,3,0,1,16,0
336612325,1696769152199951,634114858,101148359,117447,157923,0.08123779,1.5357733,0.85894877,1.5392013,1.4296875,1.4296875,0,0,4.3041496,0.096,0.209,-4.2980003,1.1402106,0,nan,nan,3,0,1,16,0
337215450,1696769152799951,634114863,101148373,120070,160546,0.07727051,64.12489,0.8609361,1.5411035,1.4296875,1.4296875,0,0,4.3301396,0.026,-0.023000002,-4.3300004,-0.72425,0,nan,nan,3,0,1,16,0
337621480,1696769153199951,634114863,101148358,121909,162386,0.07727051,3.9648266,0.86206967,1.5411035,1.4296875,1.4296875,0,0,4.535149,0.105000004,-0.09200001,-4.533,-0.7195039,0,nan,nan,3,0,1,16,0
338210332,1696769153799951,634114865,101148336,124642,165119,0.080078125,2.7634108,0.8640498,1.5430033,1.4296875,1.4296875,0,0,4.703082,0.033,-0.16700001,-4.7000003,-1.3757049,0,nan,nan,3,0,1,16,0
338609281,1696769154199951,634114867,101148322,126472,166949,0.07897949,2.0524812,0.8640498,1.5442686,1.4296875,1.4296875,0,0,4.6421466,0.056,-0.18800001,-4.638,-1.2812927,0,nan,nan,3,0,1,16,0
339205286,1696769154799951,634114871,101148309,129314,169790,0.077819824,18.684227,0.8640498,1.5449009,1.4296875,1.4296875,0,0,4.73044,0.049000002,-0.042000003,-4.73,-0.7086263,0,nan,nan,3,0,1,16,0
339613206,1696769155199951,634114873,101148313,131234,171710,0.07897949,4.0824714,0.8640498,1.5461646,1.4296875,1.4296875,0,0,4.7080555,0.061000004,0.125,-4.7060003,1.1167947,0,nan,nan,3,0,1,16,0
340214250,1696769155799951,634114869,101148316,134000,174477,0.07672119,8.235422,0.864897,1.5480583,1.4296875,1.4296875,0,0,4.5880156,-0.096,-0.010000001,-4.5870004,-3.0378003,0,nan,nan,3,0,1,16,0
340608050,1696769156199951,634114863,101148315,135924,176401,0.07342529,0.51373297,0.8640498,1.5480583,1.4296875,1.4296875,0,0,4.658366,-0.35500002,-0.13000001,-4.643,-2.7905617,0,nan,nan,3,0,1,16,0
341212562,1696769156799951,634114856,101148313,138747,179223,0.07952881,26.867836,0.8640498,1.548689,1.4296875,1.4296875,0,0,4.7113147,-0.032,-0.044000003,-4.7110004,-2.1995926,0,nan,nan,3,0,1,16,0
341612782,1696769157199951,634114857,101148314,140732,181208,0.07952881,15.105186,0.8640498,1.5480583,1.4296875,1.4296875,0,0,4.884539,-0.063,-0.036000002,-4.8840003,-2.6224465,0,nan,nan,3,0,1,16,0
342214163,1696769157799951,634114853,101148309,143688,184164,0.07897949,23.47785,0.8640498,1.5480583,1.4296875,1.4296875,0,0,4.7613535,0.040000003,0.042000003,-4.761,0.8097836,0,nan,nan,3,0,1,16,0
342613912,1696769158199951,634114851,101148302,145602,186079,0.07952881,2.161461,0.86291885,1.5480583,1.4296875,1.4296875,0,0,4.853792,-0.113000005,-0.155,-4.8500004,-2.2007425,0,nan,nan,3,0,1,16,0
343210700,1696769158799952,634114848,101148291,148487,188963,0.07952881,7.4850645,0.86291885,1.5480583,1.4296875,1.4296875,0,0,4.7391214,-0.080000006,-0.065000005,-4.7380004,-2.4592762,0,nan,nan,3,0,1,16,0
343610568,1696769159199952,634114845,101148283,150389,190865,0.07897949,4.555283,0.86291885,1.548689,1.4296875,1.4296875,0,0,4.87178,-0.047000002,-0.123,-4.8700004,-1.9357891,0,nan,nan,3,0,1,16,0
344215551,1696769159799952,634114845,101148273,153370,193846,0.07952881,7.333223,0.86291885,1.5499496,1.4296875,1.4296875,0,0,4.8901095,0.078,-0.069000006,-4.8890004,-0.72425,0,nan,nan,3,0,1,16,0
344604722,1696769160199952,634114848,101148268,155364,195840,0.07952881,53.735672,0.86291885,1.5512092,1.4296875,1.4296875,0,0,4.800154,0.038000003,-0.006,-4.8,-0.15660188,0,nan,nan,3,0,1,16,0
345210677,1696769160799952,634114851,101148266,158337,198813,0.080078125,36.234444,0.8640498,1.5518386,1.4296875,1.4296875,0,0,4.9932213,0.047000002,-0.001,-4.993,-0.021273386,0,nan,nan,3,0,1,16,0
345615318,1696769161199952,634114854,101148268,160343,200819,0.07952881,490.91852,0.8640498,1.5530967,1.4296875,1.4296875,0,0,4.9290166,0.009000001,0.009000001,-4.9290004,0.7853982,0,nan,nan,3,0,1,16,0
346215897,1696769161799952,634114856,101148273,163284,203760,0.07897949,7.2825713,0.8640498,1.5537254,1.4296875,1.4296875,0,0,4.900107,0.078,0.069000006,-4.899,0.72425,0,nan,nan,3,0,1,16,0
346614336,1696769162199952,634114857,101148275,165252,205729,0.07727051,107.320145,0.8640498,1.5537254,1.4296875,1.4296875,0,0,4.953073,0.024,0.012,-4.953,0.4636476,0,nan,nan,3,0,1,16,0
347214764,1696769162799952,634114856,101148280,168180,208656,0.07727051,6.6843,0.8640498,1.554982,1.4296875,1.4296875,0,0,4.851192,0.074,0.078,-4.8500004,0.81170785,0,nan,nan,3,0,1,16,0
347620563,1696769163199952,634114858,101148284,170163,210639,0.076171875,142.91154,0.8640498,1.5562375,1.4296875,1.4296875,0,0,4.8990545,0.022000002,0.007,-4.899,0.30805278,0,nan,nan,3,0,1,16,0
348209311,1696769163799952,634114857,101148283,173119,213596,0.076171875,26.041662,0.8640498,1.5562375,1.4296875,1.4296875,0,0,4.9422965,0.051000003,0.018000001,-4.9420004,0.33929262,0,nan,nan,3,0,1,16,0
348610884,1696769164199952,634114859,101148282,175078,215555,0.07562256,29.074419,0.864897,1.5562375,1.4296875,1.4296875,0,0,4.7912717,0.045,-0.024,-4.7910004,-0.4899573,0,nan,nan,3,0,1,16,0
349215413,1696769164799952,634114859,101148278,177939,218415,0.07397461,66.94535,0.8660254,1.554982,1.4296875,1.4296875,0,0,4.744117,0.023000002,-0.024,-4.7440004,-0.8066715,0,nan,nan,3,0,1,16,0
349615109,1696769165199952,634114859,101148275,179930,220407,0.07562256,26.883238,0.8660254,1.554982,1.4296875,1.4296875,0,0,4.988282,0.002,-0.053000003,-4.9880004,-1.5330784,0,nan,nan,3,0,1,16,0
350214858,1696769165799952,634114860,101148270,183007,223483,0.07342529,12.778505,0.8668707,1.5530967,1.4296875,1.4296875,0,0,5.1185613,0.045,-0.061000004,-5.118,-0.93521065,0,nan,nan,3,0,1,16,0
350615352,1696769166199952,634114861,101148265,185089,225566,0.074523926,10.098092,0.8668707,1.5530967,1.4296875,1.4296875,0,0,5.130719,-0.036000002,-0.078,-5.13,-2.003204,0,nan,nan,3,0,1,16,0
351213637,1696769166799952,634114855,101148256,188150,228627,0.07507324,7.105843,0.8679965,1.5518386,1.4296875,1.4296875,0,0,5.088039,-0.098000005,-0.031000001,-5.0870004,-2.8352256,0,nan,nan,3,0,1,16,0
351616531,1696769167199952,634114852,101148252,190205,230681,0.07507324,35.378532,0.8679965,1.5518386,1.4296875,1.4296875,0,0,5.1412067,-0.021000002,-0.041,-5.1410003,-2.0441523,0,nan,nan,3,0,1,16,0
352215865,1696769167799952,634114849,101148250,193193,233669,0.07397461,37.117218,0.8691209,1.5512092,1.4296875,1.4296875,0,0,4.890204,-0.043,0.012,-4.8900003,2.8694468,0,nan,nan,3,0,1,16,0
352614642,1696769168199952,634114847,101148246,195215,235691,0.07397461,6.226294,0.86996317,1.5512092,1.4296875,1.4296875,0,0,5.03318,0.091000006,-0.060000002,-5.032,-0.5829136,0,nan,nan,3,0,1,16,0
353215748,1696769168799952,634114849,101148242,198211,238687,0.07287598,25.216599,0.86996317,1.5499496,1.4296875,1.4296875,0,0,4.949292,0.037,-0.039,-4.9490004,-0.81170785,0,nan,nan,3,0,1,16,0
353615393,1696769169199953,634114850,101148239,200136,240613,0.072387695,54.632217,0.86996317,1.548689,1.4296875,1.4296875,0,0,4.7041407,0.034,-0.013,-4.704,-0.36520144,0,nan,nan,3,0,1,16,0
354205743,1696769169799953,634114853,101148241,202936,243412,0.072387695,16.752531,0.86996317,1.5480583,1.4296875,1.4296875,0,0,4.3754935,0.055000003,0.036000002,-4.375,0.579564,0,nan,nan,3,0,1,16,0
354616569,1696769170199953,634114854,101148242,204690,245166,0.070251465,121.5423,0.86996317,1.5461646,1.4296875,1.4296875,0,0,4.2410684,0.007,-0.023000002,-4.241,-1.2753555,0,nan,nan,3,0,1,16,0
355215538,1696769170799953,634114854,101148238,207271,247747,0.07128906,28.266876,0.871085,1.5442686,1.4296875,1.4296875,0,0,4.251297,0.041,-0.029000001,-4.2510004,-0.6156199,0,nan,nan,3,0,1,16,0
355612557,1696769171199953,634114853,101148235,208874,249350,0.07128906,146.08412,0.871085,1.5417371,1.4296875,1.4296875,0,0,3.7380655,0.022000002,0.002,-3.7380002,0.09065988,0,nan,nan,3,0,1,16,0
356215200,1696769171799953,634114852,101148232,210891,251367,0.07128906,19.924276,0.8719254,1.5398356,1.4296875,1.4296875,0,0,3.023592,0.047000002,0.037,-3.0230002,0.6669082,0,nan,nan,3,0,1,16,0
356615092,1696769172199953,634114850,101148230,212006,252482,0.070251465,79.469986,0.87304467,1.5379318,1.4296875,1.4296875,0,0,2.483178,-0.020000001,-0.022000002,-2.483,-2.3086114,0,nan,nan,3,0,1,16,0
357210162,1696769172799953,634114849,101148230,213376,253852,0.07287598,6.9326453,0.87304467,1.5360258,1.4199219,1.4199219,0,0,1.854836,0.036000002,0.096,-1.8520001,1.2120256,0,nan,nan,3,0,1,16,0
357619656,1696769173199953,634114849,101148237,214029,254505,0.07397461,4.227604,0.8738832,1.5347537,1.4199219,1.4199219,0,0,1.3873209,0.037,0.127,-1.381,1.2873046,0,nan,nan,3,0,1,16,0
358204638,1696769173799953,634114845,101148240,214724,255200,0.076171875,28.885803,0.8738832,1.5347537,1.4199219,1.4199219,0,0,1.2690394,-0.006,0.051000003,-1.268,1.6879051,0,nan,nan,3,0,1,16,0
358610687,1696769174199953,634114844,101148254,215132,255608,0.08062744,0.7621821,0.8738832,1.5360258,1.4199219,1.4199219,0,0,0.943812,0.07700001,0.316,-0.88600004,1.3317833,0,nan,nan,3,0,1,16,0
359215278,1696769174799953,634114853,101148305,215594,256070,0.08123779,0.26931316,0.8738832,1.5379318,1.4199219,1.4199219,0,0,0.8936851,0.252,0.48800004,-0.70500004,1.0941201,0,nan,nan,3,0,1,16,0
359608082,1696769175199953,634114860,101148337,215816,256293,0.095458984,0.46774122,0.875,1.5398356,1.4199219,1.4199219,0,0,0.7171709,0.34300002,0.294,-0.55700004,0.7086263,0,nan,nan,3,0,1,16,0
360210414,1696769175799953,634114878,101148300,216210,256686,0.042022705,0.021494363,0.876951,1.5430033,1.4199219,1.4199219,0,0,1.6074533,0.46400002,-1.319,-0.79300004,-1.2325351,0,nan,nan,3,0,1,16,0
360613624,1696769176199953,634114896,101148135,216636,257113,0.025283813,0.0031841246,0.87806386,1.5442686,1.4199219,1.4199219,0,0,2.9530113,0.512,-2.7710001,-0.883,-1.3880862,0,nan,nan,3,0,1,16,0
361214528,1696769176799953,634114922,101147667,217046,257523,0.022506714,0.00085027877,0.87889755,1.5461646,1.4199219,1.4199219,0,0,5.1542125,0.47400004,-5.123,-0.31,-1.478535,0,nan,nan,3,0,1,16,0
361612329,1696769177199953,634114935,101147203,217223,257700,0.024337769,0.00056662405,0.880008,1.5461646,1.4199219,1.4199219,0,0,6.5636754,0.223,-6.55,-0.36,-1.5367637,0,nan,nan,3,0,1,16,0
362212531,1696769177799953,634114950,101146282,217497,257973,0.025924683,0.00032811068,0.88305444,1.5480583,1.4199219,1.4199219,0,0,8.904125,0.397,-8.88,-0.521,-1.5261189,0,nan,nan,3,0,1,16,0
362610235,1696769178199953,634114965,101145515,217728,258205,0.026565552,0.00024949538,0.88498765,1.5499496,1.4199219,1.4199219,0,0,10.3220005,0.55200005,-10.304001,-0.25800002,-1.517276,0,nan,nan,3,0,1,16,0
363210622,1696769178799953,634114999,101144173,217961,258439,0.024337769,0.00016131111,0.88691664,1.5518386,1.4199219,1.4199219,0,0,12.285651,0.609,-12.268001,-0.25,-1.5211957,0,nan,nan,3,0,1,16,0
363607670,1696769179199953,634115028,101143146,218025,258502,0.024642944,0.0001458384,0.888017,1.5537254,1.5195312,1.5195312,0,0,12.9999485,0.86800003,-12.97,0.156,-1.5039723,0,nan,nan,3,0,1,15,0
364210456,1696769179799953,634115082,101141578,217065,257543,0.024642944,0.00014059797,0.88911605,1.5530967,1.4199219,1.4199219,0,0,13.576025,1.003,-13.201,3.006,-1.4949629,0,nan,nan,3,0,1,16,0
364618051,1696769180199954,634115122,101140542,215598,256076,0.02923584,0.00017741794,0.888017,1.548689,1.4199219,1.4199219,0,0,13.700384,1.1190001,-12.788001,4.787,-1.4835148,0,nan,nan,3,0,1,16,0
365214593,1696769180799954,634115183,101138976,212321,252799,0.031341553,0.0001693435,0.88691664,1.5430033,1.4199219,1.4199219,0,0,14.784766,1.0200001,-13.566001,5.7890005,-1.4957496,0,nan,nan,3,0,1,16,0
365612534,1696769181199954,634115221,101137846,210257,250735,0.030273438,0.00013772584,0.88691664,1.5442686,1.5898438,1.5898438,0,0,15.453206,1.141,-14.782001,4.3580003,-1.4937606,0,nan,nan,3,0,1,15,0
366214549,1696769181799954,634115278,101135920,208815,249294,0.026565552,9.052929e-05,0.88911605,1.5449009,1.4199219,1.4199219,0,0,17.13287,0.91200006,-17.106,0.29700002,-1.5175321,0,nan,nan,3,0,1,16,0
366615439,1696769182199954,634115310,101134524,209352,249830,0.025924683,8.253025e-05,0.8899394,1.5461646,1.4199219,1.4199219,0,0,17.865273,0.78800005,-17.706001,-2.246,-1.5263209,0,nan,nan,3,0,1,16,0
367214963,1696769182799954,634115365,101132401,211334,251813,0.026901245,8.6970555e-05,0.8910361,1.548689,1.4199219,1.4199219,0,0,18.016077,1.3030001,-17.539001,-3.9070003,-1.4966409,0,nan,nan,3,0,1,16,0
367619824,1696769183199954,634115418,101131020,212898,253378,0.026245117,8.963376e-05,0.892952,1.5530967,1.4199219,1.4199219,0,0,17.501701,1.6580001,-17.031,-3.6750002,-1.4737502,0,nan,nan,3,0,1,16,0
368210455,1696769183799954,634115516,101129035,214748,255228,0.020446777,7.727043e-05,0.89486384,1.5581188,1.4199219,1.4199219,0,0,16.439112,1.8880001,-16.157001,-2.3730001,-1.4544705,0,nan,nan,3,0,1,16,0
368608375,1696769184199954,634115587,101127771,215425,255905,0.021316528,8.715844e-05,0.89595443,1.5612495,1.5195312,1.5195312,0,0,15.691916,2.003,-15.510001,-1.2900001,-1.4423647,0,nan,nan,3,0,1,15,0
369208214,1696769184799954,634115707,101125943,215810,256290,0.023406982,0.00010075299,0.89704376,1.5637496,1.4199219,1.4199219,0,0,15.24208,2.3230002,-15.064001,-0.023000002,-1.4177928,0,nan,nan,3,0,1,16,0
369613536,1696769185199954,634115789,101124739,215734,256215,0.020736694,8.922158e-05,0.89704376,1.564998,1.5195312,1.5195312,0,0,15.252441,2.305,-15.070001,0.46800002,-1.4190197,0,nan,nan,3,0,1,15,0
370213380,1696769185799954,634115914,101122926,215426,255907,0.023101807,9.8250304e-05,0.8989469,1.5668689,1.4199219,1.4199219,0,0,15.35314,2.23,-15.1710005,0.76600003,-1.4248505,0,nan,nan,3,0,1,16,0
370613565,1696769186199954,634115995,101121696,215145,255626,0.021606445,8.656935e-05,0.8989469,1.5681149,1.4199219,1.4199219,0,0,15.8066635,2.181,-15.647,0.51500005,-1.4323009,0,nan,nan,3,0,1,16,0
371214926,1696769186799954,634116114,101119832,214940,255422,0.019882202,7.921102e-05,0.9000326,1.5687375,1.4199219,1.4199219,0,0,15.844998,2.161,-15.695001,0.24700001,-1.4339695,0,nan,nan,3,0,1,16,0
371615279,1696769187199954,634116191,101118569,214876,255358,0.025283813,9.790348e-05,0.9000326,1.569982,1.4199219,1.4199219,0,0,16.070255,2.1850002,-15.9210005,-0.025,-1.4344082,0,nan,nan,3,0,1,16,0
372210400,1696769187799954,634116308,101116651,214997,255479,0.021316528,7.9862904e-05,0.9000326,1.5730891,1.4199219,1.4199219,0,0,16.34218,2.183,-16.191,-0.39100003,-1.4367765,0,nan,nan,3,0,1,16,0
372610382,1696769188199954,634116388,101115358,215107,255589,0.020736694,7.829061e-05,0.9011169,1.5749503,1.4199219,1.4199219,0,0,16.280584,2.3100002,-16.11,-0.43500003,-1.4283779,0,nan,nan,3,0,1,16,0
373207114,1696769188799954,634116520,101113422,215319,255801,0.02015686,7.643148e-05,0.9011169,1.5768095,1.4199219,1.4199219,0,0,16.242575,2.6130002,-16.028,-0.31100002,-1.4091908,0,nan,nan,3,0,1,16,0
373613992,1696769189199954,634116616,101112143,215482,255964,0.02015686,7.7036355e-05,0.9000326,1.5780476,1.4199219,1.4199219,0,0,16.177906,2.6750002,-15.953001,-0.266,-1.4046618,0,nan,nan,3,0,1,16,0
374215328,1696769189799954,634116757,101110258,215340,255823,0.021026611,8.520636e-05,0.9000326,1.5799031,1.4199219,1.4199219,0,0,15.715025,2.608,-15.491001,0.43500003,-1.4040046,0,nan,nan,3,0,1,16,0
374605744,1696769190199954,634116850,101109025,215180,255663,0.021606445,8.8953784e-05,0.9011169,1.5817564,1.4199219,1.4199219,0,0,15.588913,2.4520001,-15.391001,0.34500003,-1.4128101,0,nan,nan,3,0,1,16,0
375212399,1696769190799955,634116977,101107172,214933,255417,0.021911621,8.924911e-05,0.9019294,1.5848403,1.4199219,1.4199219,0,0,15.67197,2.204,-15.5130005,0.316,-1.4296665,0,nan,nan,3,0,1,16,0
375613443,1696769191199955,634117059,101105938,214885,255369,0.021316528,8.726786e-05,0.90301144,1.5873032,1.4199219,1.4199219,0,0,15.629001,2.265,-15.464001,0.012,-1.4253613,0,nan,nan,3,0,1,16,0
376210476,1696769191799955,634117180,101104075,214765,255249,0.023712158,9.592659e-05,0.90409225,1.5897622,1.4199219,1.4199219,0,0,15.722487,2.2670002,-15.558001,0.07700001,-1.4261018,0,nan,nan,3,0,1,16,0
376613307,1696769192199955,634117262,101102829,214902,255386,0.023406982,9.520836e-05,0.90490204,1.5909903,1.4199219,1.4199219,0,0,15.685949,2.1680002,-15.529,-0.446,-1.4320831,0,nan,nan,3,0,1,16,0
377208157,1696769192799955,634117359,101100940,215006,255491,0.023101807,9.0944435e-05,0.9059806,1.5922174,1.4199219,1.4199219,0,0,15.938071,1.5550001,-15.862,-0.032,-1.4730755,0,nan,nan,3,0,1,16,0
377619481,1696769193199955,634117415,101099670,215003,255488,0.02279663,8.8969005e-05,0.9070578,1.5922174,1.4199219,1.4199219,0,0,16.007223,1.4100001,-15.945001,0.004,-1.4825968,0,nan,nan,3,0,1,16,0
378212426,1696769193799955,634117493,101097750,214909,255394,0.022506714,8.620654e-05,0.9081338,1.5928307,1.4199219,1.4199219,0,0,16.159151,1.4360001,-16.094,0.19800001,-1.4818062,0,nan,nan,3,0,1,16,0
378604610,1696769194199955,634117554,101096468,214811,255297,0.023712158,9.091109e-05,0.9081338,1.5940564,1.4199219,1.4199219,0,0,16.150778,1.7780001,-16.052,0.14,-1.4604809,0,nan,nan,3,0,1,16,0
379210328,1696769194799955,634117655,101094539,214800,255286,0.021606445,8.244085e-05,0.90893996,1.5971166,1.4199219,1.4199219,0,0,16.19013,2.0,-16.065,0.19000001,-1.4469393,0,nan,nan,3,0,1,16,0
379613536,1696769195199955,634117727,101093254,214731,255217,0.021606445,8.273981e-05,0.90893996,1.5989499,1.4199219,1.4199219,0,0,16.15996,2.0040002,-16.035,0.08400001,-1.4464643,0,nan,nan,3,0,1,16,0
380213157,1696769195799955,634117835,101091339,214728,255215,0.021606445,8.339342e-05,0.90893996,1.6007811,1.4199219,1.4199219,0,0,16.096336,1.9560001,-15.977001,0.039,-1.4489765,0,nan,nan,3,0,1,16,0
380612756,1696769196199955,634117908,101090069,214798,255285,0.025924683,0.000101383026,0.91001374,1.6032194,1.4199219,1.4199219,0,0,15.9928055,1.963,-15.870001,-0.24400002,-1.4477289,0,nan,nan,3,0,1,16,0
381209407,1696769196799955,634118011,101088170,214988,255475,0.021316528,8.416011e-05,0.91001374,1.6050458,1.4199219,1.4199219,0,0,15.919037,1.9010001,-15.801001,-0.36100003,-1.4510629,0,nan,nan,3,0,1,16,0
381615702,1696769197199955,634118080,101086903,215173,255661,0.021316528,8.3343024e-05,0.91001374,1.6050458,1.4199219,1.4199219,0,0,15.995012,1.8790001,-15.882001,-0.268,-1.4530337,0,nan,nan,3,0,1,16,0
382217416,1696769197799955,634118186,101085005,215274,255762,0.019882202,7.8672885e-05,0.91108626,1.60687,1.4199219,1.4199219,0,0,15.897194,1.9590001,-15.776001,-0.030000001,-1.4472528,0,nan,nan,3,0,1,16,0
382611581,1696769198199955,634118261,101083751,215303,255791,0.019607544,7.871459e-05,0.91108626,1.60687,1.4199219,1.4199219,0,0,15.782812,2.0960002,-15.643001,0.022000002,-1.4376,0,nan,nan,3,0,1,16,0
383215196,1696769198799955,634118373,101081867,215291,255779,0.020446777,8.203465e-05,0.91108626,1.6092992,1.4199219,1.4199219,0,0,15.787576,1.963,-15.665001,0.044000003,-1.4461349,0,nan,nan,3,0,1,16,0
383616111,1696769199199955,634118445,101080613,215269,255757,0.019882202,7.999933e-05,0.9118898,1.6099058,1.4199219,1.4199219,0,0,15.764827,1.94,-15.645,-0.011000001,-1.4474248,0,nan,nan,3,0,1,16,0
384208061,1696769199799955,634118553,101078716,215334,255823,0.023712158,9.276237e-05,0.9118898,1.6111186,1.4199219,1.4199219,0,0,15.9882765,1.9810001,-15.865001,0.049000002,-1.4465733,0,nan,nan,3,0,1,16,0
384613703,1696769200199955,634118628,101077444,215375,255864,0.020736694,7.927932e-05,0.9118898,1.6111186,1.4199219,1.4199219,0,0,16.172974,2.1680002,-16.027,-0.011000001,-1.4363407,0,nan,nan,3,0,1,16,0
385213360,1696769200799955,634118739,101075497,215383,255873,0.021316528,7.953288e-05,0.9118898,1.6111186,1.4199219,1.4199219,0,0,16.371601,2.006,-16.248001,-0.08800001,-1.4479566,0,nan,nan,3,0,1,16,0
385613011,1696769201199955,634118814,101074192,215442,255932,0.023101807,8.5848114e-05,0.91296005,1.6111186,1.4199219,1.4199219,0,0,16.405642,1.983,-16.284,-0.21000001,-1.449617,0,nan,nan,3,0,1,16,0
386212014,1696769201799956,634118921,101072224,215592,256082,0.021606445,7.986783e-05,0.91296005,1.6099058,1.4199219,1.4199219,0,0,16.447737,1.9560001,-16.331001,-0.023000002,-1.451592,0,nan,nan,3,0,1,16,0
386615156,1696769202199956,634118990,101070924,215543,256034,0.023406982,8.7553846e-05,0.91296005,1.6111186,1.4199219,1.4199219,0,0,16.354002,1.899,-16.240002,0.33100003,-1.4543915,0,nan,nan,3,0,1,16,0
387210164,1696769202799956,634119093,101068985,215391,255882,0.026565552,0.000100657315,0.9140291,1.6111186,1.4199219,1.4199219,0,0,16.24875,1.8670001,-16.138,0.31800002,-1.4556186,0,nan,nan,3,0,1,16,0
387620299,1696769203199956,634119157,101067698,215233,255724,0.022506714,8.623161e-05,0.9140291,1.6111186,1.4199219,1.4199219,0,0,16.162807,1.6800001,-16.068,0.483,-1.4666193,0,nan,nan,3,0,1,16,0
388208388,1696769203799956,634119217,101065759,214966,255457,0.03277588,0.0001225763,0.91296005,1.6099058,1.4199219,1.4199219,0,0,16.357407,0.19100001,-16.351,0.416,-1.5591156,0,nan,nan,3,0,1,16,0
388610309,1696769204199956,634119200,101064444,214817,255309,0.029586792,0.000108005304,0.91108626,1.6050458,1.4199219,1.4199219,0,0,16.556387,-1.312,-16.499,0.41900003,-1.6501492,0,nan,nan,3,0,1,16,0
389209137,1696769204799956,634119071,101062455,214739,255231,0.03881836,0.00013338082,0.91108626,1.6001709,1.4199219,1.4199219,0,0,17.059753,-3.5700002,-16.682001,-0.034,-1.7816194,0,nan,nan,3,0,1,16,0
389609169,1696769205199956,634118922,101061121,214818,255310,0.030273438,0.00010212917,0.91108626,1.5958931,1.4199219,1.4199219,0,0,17.220102,-4.7000003,-16.563002,-0.33,-1.8472929,0,nan,nan,3,0,1,16,0
390208364,1696769205799956,634118622,101059172,214981,255474,0.037628174,0.00012677113,0.91001374,1.5909903,1.4199219,1.4199219,0,0,17.229652,-6.419,-15.988001,-0.20300001,-1.9525853,0,nan,nan,3,0,1,16,0
390614727,1696769206199956,634118376,101057908,215060,255553,0.03842163,0.00012962478,0.91001374,1.5879183,1.4199219,1.4199219,0,0,17.217339,-7.294,-15.595,-0.17400001,-2.0082831,0,nan,nan,3,0,1,16,0
391213038,1696769206799956,634117936,101056077,215222,255715,0.040405273,0.0001332209,0.90893996,1.584224,1.4199219,1.4199219,0,0,17.4181,-8.991,-14.915001,-0.30800003,-2.1132836,0,nan,nan,3,0,1,16,0
391613369,1696769207199956,634117594,101054906,215292,255785,0.037261963,0.00012160389,0.9081338,1.5811388,1.4199219,1.4199219,0,0,17.505041,-10.062,-14.324,-0.075,-2.1831696,0,nan,nan,3,0,1,16,0
392207797,1696769207799956,634117004,101053225,215387,255880,0.039611816,0.00012167553,0.9070578,1.5749503,1.4199219,1.4199219,0,0,18.043083,-11.745001,-13.6970005,0.003,-2.2796211,0,nan,nan,3,0,1,16,0
392610575,1696769208199956,634116565,101052158,215430,255924,0.036102295,0.00010849565,0.9059806,1.5712256,1.4199219,1.4199219,0,0,18.242615,-12.721001,-13.074,-0.19900002,-2.3425105,0,nan,nan,3,0,1,16,0
393210328,1696769208799956,634115850,101050642,215406,255900,0.036468506,0.00010752844,0.90409225,1.5637496,1.4199219,1.4199219,0,0,18.41678,-13.759001,-12.241,0.16000001,-2.4145129,0,nan,nan,3,0,1,16,0
393605171,1696769209199956,634115338,101049687,215336,255830,0.039215088,0.00011036773,0.90301144,1.559998,1.4199219,1.4199219,0,0,18.850393,-14.864,-11.592001,0.156,-2.4792466,0,nan,nan,3,0,1,16,0
394210865,1696769209799956,634114496,101048350,215353,255847,0.039215088,0.000103724364,0.9011169,1.5537254,1.4199219,1.4199219,0,0,19.444036,-16.216002,-10.729,-0.020000001,-2.5570848,0,nan,nan,3,0,1,16,0
394612983,1696769210199956,634113900,101047521,215374,255868,0.04751587,0.00012300472,0.9000326,1.548689,1.4199219,1.4199219,0,0,19.654524,-16.932001,-9.9800005,-0.085,-2.6089916,0,nan,nan,3,0,1,16,0
395216127,1696769210799956,634112965,101046384,215454,255949,0.043670654,0.00010999761,0.8989469,1.5411035,1.4199219,1.4199219,0,0,19.925247,-17.798,-8.958,-0.030000001,-2.6752965,0,nan,nan,3,0,1,16,0
395614864,1696769211199956,634112320,101045691,215444,255939,0.040008545,9.974631e-05,0.89704376,1.5360258,1.4199219,1.4199219,0,0,20.027798,-18.153002,-8.46,0.098000005,-2.7054813,0,nan,nan,3,0,1,16,0
396213605,1696769211799956,634111321,101044745,215194,255689,0.0524292,0.0001250483,0.89486384,1.527099,1.4199219,1.4199219,0,0,20.483562,-19.167002,-7.2040005,0.55200005,-2.7820733,0,nan,nan,3,0,1,16,0
396615192,1696769212199956,634110610,101044228,214905,255400,0.06707764,0.00014850566,0.89595443,1.5219744,1.4199219,1.4199219,0,0,21.270947,-20.472,-5.708,0.87700003,-2.8696785,0,nan,nan,3,0,1,16,0
397214692,1696769212799957,634109453,101043753,214472,254967,0.0440979,8.61838e-05,0.89595443,1.5168326,1.4199219,1.4199219,0,0,22.62868,-22.507002,-2.26,0.62,-3.0415149,0,nan,nan,3,0,1,16,0
397620248,1696769213199957,634108626,101043676,214268,254763,0.023712158,4.269057e-05,0.892952,1.5110272,1.4199219,1.4199219,0,0,23.570152,-23.565,0.365,0.33100003,3.1261048,0,nan,nan,3,0,1,16,0
398218273,1696769213799957,634107337,101043968,214248,254743,0.024032593,3.9189632e-05,0.88691664,1.5019518,1.4199219,1.4199219,0,0,24.766113,-24.337002,4.577,-0.349,2.9556966,0,nan,nan,3,0,1,16,0
398617321,1696769214199957,634106465,101044450,214449,254944,0.025604248,3.957476e-05,0.88305444,1.4980456,1.4199219,1.4199219,0,0,25.44289,-24.339,7.3890004,-0.597,2.8468485,0,nan,nan,3,0,1,16,0
399216946,1696769214799957,634105170,101045567,214827,255321,0.021911621,3.1969914e-05,0.87806386,1.4941292,1.4199219,1.4199219,0,0,26.188105,-23.747002,11.021001,-0.65900004,2.7070746,0,nan,nan,3,0,1,16,0
399618714,1696769215199957,634104331,101046534,215018,255513,0.02279663,3.2314227e-05,0.875,1.4902024,1.4199219,1.4199219,0,0,26.563007,-23.094002,13.120001,-0.35500002,2.6249497,0,nan,nan,3,0,1,16,0
400219300,1696769215799957,634103122,101048292,215058,255553,0.029586792,4.024418e-05,0.871085,1.4849505,1.4199219,1.4199219,0,0,27.114933,-21.718,16.233002,-0.194,2.4997292,0,nan,nan,3,0,1,16,0
400618946,1696769216199957,634102363,101049670,215082,255575,0.031341553,4.1647134e-05,0.8691209,1.4842927,1.4199219,1.4199219,0,0,27.432772,-20.563002,18.158,-0.083000004,2.4182258,0,nan,nan,3,0,1,16,0
401218579,1696769216799957,634101311,101052025,215140,255634,0.026245117,3.3703054e-05,0.8668707,1.4823177,1.4199219,1.4199219,0,0,27.90554,-18.621,20.784,0.054,2.301358,0,nan,nan,3,0,1,16,0
401619371,1696769217199957,634100669,101053742,215052,255545,0.024337769,3.09861e-05,0.864897,1.4796801,1.4199219,1.4199219,0,0,28.028252,-17.273,22.070002,0.37600002,2.2348657,0,nan,nan,3,0,1,16,0
402222591,1696769217799957,634099798,101056512,214755,255247,0.02279663,2.8281705e-05,0.86206967,1.4776988,1.4199219,1.4199219,0,0,28.39547,-15.166,24.001001,0.497,2.134335,0,nan,nan,3,0,1,16,0
402615262,1696769218199957,634099279,101058482,214603,255095,0.019317627,2.3318444e-05,0.86008495,1.4757149,1.4199219,1.4199219,0,0,28.783188,-13.984,25.157001,0.21200001,2.0781345,0,nan,nan,3,0,1,16,0
403210670,1696769218799957,634098564,101061554,214545,255037,0.019882202,2.3839624e-05,0.8561017,1.4730655,1.4199219,1.4199219,0,0,28.879143,-12.689,25.942001,-0.082,2.0257096,0,nan,nan,3,0,1,16,0
403613468,1696769219199957,634098125,101063644,214648,255140,0.019607544,2.3548273e-05,0.85410315,1.4710753,1.4199219,1.4199219,0,0,28.859974,-11.875001,26.299002,-0.49500003,1.9949286,0,nan,nan,3,0,1,16,0
404219225,1696769219799957,634097517,101066838,214986,255476,0.019882202,2.379805e-05,0.85095304,1.469747,1.4199219,1.4199219,0,0,28.910446,-10.707001,26.848001,-0.59900004,1.9502683,0,nan,nan,3,0,1,16,0
404618828,1696769220199957,634097150,101069004,215207,255697,0.022506714,2.6855647e-05,0.85009193,1.4690824,1.4199219,1.4199219,0,0,28.954033,-9.828,27.230001,-0.523,1.9171709,0,nan,nan,3,0,1,16,0
405214505,1696769220799957,634096666,101072312,215352,255842,0.025604248,3.0326086e-05,0.85095304,1.4710753,1.4199219,1.4199219,0,0,29.057827,-8.124001,27.898,-0.24400002,1.8541636,0,nan,nan,3,0,1,16,0
405614424,1696769221199957,634096398,101074562,215346,255835,0.024642944,2.8966873e-05,0.8520999,1.4710753,1.4199219,1.4199219,0,0,29.167282,-6.663,28.396002,0.043,1.8012725,0,nan,nan,3,0,1,16,0
406217410,1696769221799957,634096110,101078021,215306,255795,0.024642944,2.847222e-05,0.85095304,1.4730655,1.4199219,1.4199219,0,0,29.419588,-3.9140003,29.158,0.061000004,1.7042328,0,nan,nan,3,0,1,16,0
406615386,1696769222199957,634095992,101080365,215140,255628,0.023101807,2.6474012e-05,0.85095304,1.4730655,1.4199219,1.4199219,0,0,29.54262,-2.6060002,29.425001,0.38000003,1.65913,0,nan,nan,3,0,1,16,0
407209719,1696769222799957,634095931,101083925,214860,255347,0.021911621,2.4556659e-05,0.85009193,1.4757149,1.4199219,1.4199219,0,0,29.875246,0.36200002,29.869001,0.492,1.5586773,0,nan,nan,3,0,1,16,0
407624890,1696769223199957,634095983,101086317,214620,255107,0.025924683,2.8826427e-05,0.85009193,1.4776988,1.4199219,1.4199219,0,0,29.993727,2.5540001,29.880001,0.535,1.4855283,0,nan,nan,3,0,1,16,0
408215072,1696769223799957,634096224,101089883,214278,254764,0.02923584,3.2333148e-05,0.85009193,1.4842927,1.4199219,1.4199219,0,0,30.074696,6.4140005,29.378002,0.53000003,1.3558427,0,nan,nan,3,0,1,16,0
408609998,1696769224199958,634096500,101092203,214063,254550,0.023101807,2.5779324e-05,0.84894234,1.4842927,1.4199219,1.4199219,0,0,29.938208,8.903001,28.581001,0.39900002,1.2688222,0,nan,nan,3,0,1,16,0
409214546,1696769224799958,634097087,101095526,213991,254477,0.024337769,2.7841297e-05,0.84807914,1.4823177,1.4199219,1.4199219,0,0,29.566795,12.808001,26.648,-0.186,1.1227592,0,nan,nan,3,0,1,16,0
409615121,1696769225199958,634097588,101097593,214129,254614,0.023712158,2.770675e-05,0.84692687,1.47902,1.4199219,1.4199219,0,0,29.259619,15.160001,25.02,-0.54700005,1.0260386,0,nan,nan,3,0,1,16,0
410215687,1696769225799958,634098485,101100425,214462,254947,0.027557373,3.3726974e-05,0.84606165,1.4737283,1.4199219,1.4199219,0,0,28.588049,18.02,22.189001,-0.45200002,0.8887123,0,nan,nan,3,0,1,16,0
410614627,1696769226199958,634099161,101102120,214648,255132,0.02722168,3.4072735e-05,0.8449066,1.469747,1.4199219,1.4199219,0,0,28.272278,19.732,20.238,-0.62700003,0.798057,0,nan,nan,3,0,1,16,0
411211246,1696769226799958,634100276,101104359,214841,255325,0.024337769,3.2237473e-05,0.8440393,1.4657549,1.4199219,1.4199219,0,0,27.478336,21.552002,17.043001,-0.326,0.66909677,0,nan,nan,3,0,1,16,0
411617322,1696769227199958,634101064,101105640,214924,255407,0.027893066,3.863219e-05,0.8428815,1.4630874,1.4199219,1.4199219,0,0,26.8708,22.312,14.973001,-0.15400001,0.5910475,0,nan,nan,3,0,1,16,0
412218152,1696769227799958,634102287,101107234,214883,255366,0.024337769,3.642635e-05,0.8420121,1.4577379,1.4199219,1.4199219,0,0,25.851011,23.032001,11.733001,0.372,0.47115648,0,nan,nan,3,0,1,16,0
412614222,1696769228199958,634103119,101108085,214718,255202,0.019317627,3.015916e-05,0.8411418,1.453041,1.4199219,1.4199219,0,0,25.31001,23.451,9.517,0.272,0.38551775,0,nan,nan,3,0,1,16,0
413217508,1696769228799958,634104389,101108996,214653,255136,0.019607544,3.2979544e-05,0.83706844,1.4463046,1.4199219,1.4199219,0,0,24.383274,23.708,5.6980004,-0.087000005,0.23586722,0,nan,nan,3,0,1,16,0
413618553,1696769229199958,634105238,101109348,214753,255236,0.020446777,3.592249e-05,0.8350243,1.4422476,1.4199219,1.4199219,0,0,23.860682,23.649002,3.1490002,-0.37500003,0.13237703,0,nan,nan,3,0,1,16,0
414215341,1696769229799958,634106489,101109526,214938,255421,0.023101807,4.4297678e-05,0.83209544,1.4361407,1.4199219,1.4199219,0,0,22.841389,22.836,-0.17300001,-0.46500003,-0.007575613,0,nan,nan,3,0,1,16,0
414619417,1696769230199958,634107293,101109446,215015,255499,0.023101807,4.7262856e-05,0.830921,1.4320549,1.4199219,1.4199219,0,0,22.108698,22.043001,-1.7030001,-0.020000001,-0.077104926,0,nan,nan,3,0,1,16,0
415218401,1696769230799958,634108444,101109116,215019,255502,0.024642944,5.5335615e-05,0.8288617,1.4272734,1.4199219,1.4199219,0,0,21.102993,20.783,-3.6610003,0.017,-0.17436476,0,nan,nan,3,0,1,16,0
415615324,1696769231199958,634109171,101108757,214947,255431,0.025604248,6.0735198e-05,0.8279776,1.4231622,1.4199219,1.4199219,0,0,20.532566,19.856,-5.2260003,0.120000005,-0.25735843,0,nan,nan,3,0,1,16,0
416215809,1696769231799958,634110198,101108000,214809,255292,0.026901245,6.921033e-05,0.8270925,1.4211022,1.4199219,1.4199219,0,0,19.715261,18.327002,-7.267,0.057000004,-0.37750173,0,nan,nan,3,0,1,16,0
416616425,1696769232199958,634110838,101107373,214713,255196,0.024963379,6.7000066e-05,0.8270925,1.4211022,1.4199219,1.4199219,0,0,19.303438,17.435001,-8.283,0.18800001,-0.44351265,0,nan,nan,3,0,1,16,0
417216598,1696769232799958,634111738,101106280,214591,255075,0.023712158,6.720599e-05,0.8259109,1.4197271,1.4199219,1.4199219,0,0,18.784174,15.997001,-9.845,0.13100001,-0.5516864,0,nan,nan,3,0,1,16,0
417625156,1696769233199958,634112293,101105444,214560,255044,0.024963379,7.273337e-05,0.8259109,1.419039,1.4199219,1.4199219,0,0,18.52633,14.943001,-10.951,-0.085,-0.63243544,0,nan,nan,3,0,1,16,0
418218524,1696769233799958,634113049,101104035,214700,255184,0.025604248,7.7751734e-05,0.8259109,1.4197271,1.4199219,1.4199219,0,0,18.149014,13.226001,-12.425,-0.28100002,-0.75418144,0,nan,nan,3,0,1,16,0
418617658,1696769234199958,634113504,101103009,214901,255385,0.029586792,9.246407e-05,0.8259109,1.4197271,1.4199219,1.4199219,0,0,17.894018,12.156,-13.123001,-0.46300003,-0.82363266,0,nan,nan,3,0,1,16,0
419218704,1696769234799958,634114115,101101381,215187,255671,0.02822876,9.362578e-05,0.8270925,1.4217892,1.4199219,1.4199219,0,0,17.372023,10.527,-13.809001,-0.53000003,-0.9194513,0,nan,nan,3,0,1,16,0
419619241,1696769235199959,634114472,101100262,215330,255815,0.024032593,8.392585e-05,0.8279776,1.4231622,1.4199219,1.4199219,0,0,16.924026,9.507001,-13.999001,-0.26000002,-0.9742217,0,nan,nan,3,0,1,16,0
420216574,1696769235799959,634114939,101098568,215267,255752,0.023406982,8.860574e-05,0.8288617,1.4252193,1.4199219,1.4199219,0,0,16.254028,7.9040003,-14.202001,0.15300001,-1.0629449,0,nan,nan,3,0,1,16,0
420618741,1696769236199959,634115205,101097411,215164,255649,0.023712158,9.179238e-05,0.8300391,1.4272734,1.4199219,1.4199219,0,0,16.074999,6.8810005,-14.525001,0.286,-1.1283807,0,nan,nan,3,0,1,16,0
421218323,1696769236799959,634115535,101095619,215075,255560,0.025604248,9.8203556e-05,0.83209544,1.4327366,1.4199219,1.4199219,0,0,16.147043,5.4680004,-15.193001,0.027,-1.225327,0,nan,nan,3,0,1,16,0
421417581,1696769236999960,634115627,101095006,215066,255552,0.022201538,8.572356e-05,0.8329752,1.4340992,1.4199219,1.4199219,0,0,16.0933,4.853,-15.344001,-0.066,-1.2644715,0,nan,nan,3,0,1,16,0
422214512,1696769237799959,634115895,101092490,215171,255658,0.025283813,9.712794e-05,0.833854,1.4381791,1.4199219,1.4199219,0,0,16.135456,2.584,-15.926001,-0.19600001,-1.4099476,0,nan,nan,3,0,1,16,0
422617434,1696769238199959,634115973,101091206,215257,255744,0.032043457,0.00012375014,0.8350243,1.4402149,1.4199219,1.4199219,0,0,16.093422,1.8570001,-15.984001,-0.24800001,-1.4551362,0,nan,nan,3,0,1,16,0
423214869,1696769238799959,634116029,101089266,215428,255915,0.024963379,9.468517e-05,0.83706844,1.4422476,1.4199219,1.4199219,0,0,16.242409,0.448,-16.231,-0.41200003,-1.5432018,0,nan,nan,3,0,1,16,0
423613382,1696769239199959,634116024,101087964,215520,256007,0.025283813,9.5572424e-05,0.83794296,1.4422476,1.4199219,1.4199219,0,0,16.265203,-0.59900004,-16.254002,-0.074,-1.607632,0,nan,nan,3,0,1,16,0
424224511,1696769239799959,634115949,101086013,215447,255935,0.031677246,0.00012005572,0.83998,1.4429245,1.4199219,1.4199219,0,0,16.245602,-2.032,-16.116001,0.25500003,-1.6962203,0,nan,nan,3,0,1,16,0
424618633,1696769240199959,634115863,101084728,215287,255775,0.036865234,0.00014069272,0.8420121,1.4442775,1.4199219,1.4199219,0,0,16.19447,-2.8070002,-15.942,0.48400003,-1.7450856,0,nan,nan,3,0,1,16,0
425215496,1696769240799959,634115666,101082798,215080,255568,0.028900146,0.00010362655,0.8449066,1.4449536,1.4199219,1.4199219,0,0,16.699936,-4.5540004,-16.067001,0.021000002,-1.8469903,0,nan,nan,3,0,1,16,0
425615336,1696769241199959,634115478,101081520,215008,255497,0.031341553,0.00011103823,0.84606165,1.4449536,1.4199219,1.4199219,0,0,16.800592,-5.88,-15.738001,0.029000001,-1.9283549,0,nan,nan,3,0,1,16,0
426207979,1696769241799959,634115114,101079649,215087,255575,0.03842163,0.00013245038,0.84807914,1.4449536,1.4199219,1.4199219,0,0,17.032253,-7.4480004,-15.317,-0.120000005,-2.0233893,0,nan,nan,3,0,1,16,0
426618279,1696769242199959,634114827,101078438,215099,255588,0.03881836,0.00013148664,0.84894234,1.4463046,1.4199219,1.4199219,0,0,17.182312,-8.527,-14.917001,0.072000004,-2.090094,0,nan,nan,3,0,1,16,0
427217555,1696769242799959,634114327,101076699,215057,255546,0.034606934,0.00011649772,0.85009193,1.4449536,1.4199219,1.4199219,0,0,17.235836,-10.025001,-14.02,0.11400001,-2.1915517,0,nan,nan,3,0,1,16,0
427616303,1696769243199959,634113947,101075606,214968,255457,0.034606934,0.00011540282,0.85095304,1.4442775,1.4199219,1.4199219,0,0,17.317507,-11.114,-13.280001,0.12900001,-2.2676344,0,nan,nan,3,0,1,16,0
428218347,1696769243799959,634113303,101074064,214864,255354,0.036468506,0.000115346455,0.85095304,1.4422476,1.4199219,1.4199219,0,0,17.78144,-12.8,-12.342001,0.12100001,-2.374409,0,nan,nan,3,0,1,16,0
428616396,1696769244199959,634112824,101073097,214834,255324,0.036865234,0.0001110377,0.8520999,1.4408927,1.4199219,1.4199219,0,0,18.22106,-13.923,-11.754001,0.024,-2.440467,0,nan,nan,3,0,1,16,0
429216736,1696769244799959,634112029,101071757,214823,255313,0.043670654,0.00012180266,0.8520999,1.4402149,1.4199219,1.4199219,0,0,18.935143,-15.690001,-10.6,-0.059000004,-2.5474381,0,nan,nan,3,0,1,16,0
429617372,1696769245199959,634111447,101070942,214846,255336,0.04928589,0.00013060922,0.8520999,1.4381791,1.4199219,1.4199219,0,0,19.425806,-16.78,-9.787001,-0.09,-2.6135776,0,nan,nan,3,0,1,16,0
430216862,1696769245799959,634110497,101069864,215000,255490,0.051971436,0.00012819078,0.85410315,1.4340992,1.4199219,1.4199219,0,0,20.13751,-18.423,-8.125,-0.31100002,-2.7262275,0,nan,nan,3,0,1,16,0
430619014,1696769246199960,634109819,101069267,215147,255638,0.05618286,0.00013362245,0.85496026,1.4306904,1.4199219,1.4199219,0,0,20.506971,-19.343,-6.8050003,-0.27600002,-2.803309,0,nan,nan,3,0,1,16,0
431018232,1696769246599960,634109112,101068785,215264,255755,0.05569458,0.00012923525,0.8561017,1.4293246,1.4199219,1.4199219,0,0,20.760798,-20.067001,-5.3170004,-0.23600002,-2.8825822,0,nan,nan,3,0,1,16,0
431615085,1696769247199960,634108004,101068280,215459,255949,0.056640625,0.00012441546,0.85809565,1.4272734,1.4199219,1.4199219,0,0,21.336796,-21.106,-3.1290002,-0.07,-2.994413,0,nan,nan,3,0,1,16,0
432216338,1696769247799960,634106848,101068044,215468,255958,0.038024902,7.855077e-05,0.85695684,1.4252193,1.4199219,1.4199219,0,0,22.002714,-21.988,-0.78000003,0.19700001,-3.1061337,0,nan,nan,3,0,1,16,0
432615776,1696769248199960,634106052,101068052,215337,255828,0.024337769,4.8360078e-05,0.85410315,1.4211022,1.4199219,1.4199219,0,0,22.439991,-22.417002,0.86,0.54,3.1032476,0,nan,nan,3,0,1,16,0
433217722,1696769248799960,634104832,101068351,215079,255570,0.02279663,4.1786294e-05,0.85009193,1.4149039,1.4199219,1.4199219,0,0,23.362295,-22.980001,4.1800003,0.49400002,2.9616625,0,nan,nan,3,0,1,16,0
433618223,1696769249199960,634104009,101068784,214920,255410,0.023712158,4.133119e-05,0.84692687,1.4121405,1.4199219,1.4199219,0,0,23.953972,-23.023,6.6070004,0.286,2.8621287,0,nan,nan,3,0,1,16,0
434220385,1696769249799960,634102775,101069815,214789,255279,0.024963379,3.983261e-05,0.8440393,1.4121405,1.4199219,1.4199219,0,0,25.035799,-22.734001,10.482,0.29000002,2.70957,0,nan,nan,3,0,1,16,0
434619957,1696769250199960,634101970,101070768,214688,255178,0.026565552,3.9831135e-05,0.8428815,1.4111028,1.4199219,1.4199219,0,0,25.825527,-22.150002,13.279,0.059000004,2.6015384,0,nan,nan,3,0,1,16,0
435215316,1696769250799960,634100828,101072626,214776,255266,0.039611816,5.514287e-05,0.8420121,1.4121405,1.4199219,1.4199219,0,0,26.804136,-20.244001,17.565,-0.33600003,2.4269323,0,nan,nan,3,0,1,16,0
435619382,1696769251199960,634100128,101074121,214939,255428,0.036468506,4.9250943e-05,0.8420121,1.4149039,1.4199219,1.4199219,0,0,27.21445,-18.759,19.712002,-0.404,2.3314276,0,nan,nan,3,0,1,16,0
436213363,1696769251799960,634099191,101076646,215105,255594,0.02722168,3.574884e-05,0.8420121,1.417662,1.4199219,1.4199219,0,0,27.596773,-16.050001,22.447,-0.33400002,2.1915302,0,nan,nan,3,0,1,16,0
436615399,1696769252199960,634098654,101078529,215214,255703,0.023406982,2.9640458e-05,0.8420121,1.4217892,1.4199219,1.4199219,0,0,28.101685,-13.872001,24.439001,-0.087000005,2.0870647,0,nan,nan,3,0,1,16,0
437214831,1696769252799960,634098015,101081607,215243,255731,0.023406982,2.868201e-05,0.8428815,1.4293246,1.4199219,1.4199219,0,0,28.567219,-9.870001,26.808,0.011000001,1.9235688,0,nan,nan,3,0,1,16,0
437620579,1696769253199960,634097715,101083805,215237,255725,0.021026611,2.5166279e-05,0.8428815,1.4340992,1.4199219,1.4199219,0,0,28.905247,-6.8980002,28.070002,0.07700001,1.8117641,0,nan,nan,3,0,1,16,0
438216420,1696769253799960,634097474,101087252,215294,255781,0.022506714,2.6339638e-05,0.8420121,1.4422476,1.4199219,1.4199219,0,0,29.232824,-2.0,29.163002,-0.27800003,1.6392691,0,nan,nan,3,0,1,16,0
438617855,1696769254199960,634097456,101089600,215348,255834,0.021606445,2.501448e-05,0.8420121,1.4463046,1.4199219,1.4199219,0,0,29.390015,0.83100003,29.378002,0.124000005,1.5425174,0,nan,nan,3,0,1,16,0
439217197,1696769254799960,634097632,101093092,215253,255739,0.023406982,2.7315784e-05,0.8420121,1.4550558,1.4199219,1.4199219,0,0,29.274162,5.5550003,28.741001,0.27100003,1.3798726,0,nan,nan,3,0,1,16,0
439617181,1696769255199960,634097893,101095357,215120,255605,0.022506714,2.6306472e-05,0.8428815,1.4617519,1.4199219,1.4199219,0,0,29.25243,8.950001,27.847002,0.38300002,1.2598248,0,nan,nan,3,0,1,16,0
440218358,1696769255799960,634098497,101098571,214842,255327,0.025604248,3.05065e-05,0.8428815,1.4677523,1.4199219,1.4199219,0,0,28.976925,13.324,25.725,0.59800005,1.0929002,0,nan,nan,3,0,1,16,0
440617705,1696769256199960,634099023,101100550,214568,255052,0.023712158,2.8917402e-05,0.8428815,1.4670868,1.4199219,1.4199219,0,0,28.64153,16.094,23.685001,0.58400005,0.97396046,0,nan,nan,3,0,1,16,0
441206356,1696769256799960,634099992,101103175,214386,254871,0.026565552,3.3965833e-05,0.8428815,1.4637548,1.4199219,1.4199219,0,0,27.968067,19.506,20.041,0.29500002,0.7989255,0,nan,nan,3,0,1,16,0
441618195,1696769257199961,634100719,101104676,214275,254759,0.02822876,3.7522164e-05,0.8428815,1.4617519,1.4199219,1.4199219,0,0,27.42851,21.038,17.599,0.030000001,0.69662416,0,nan,nan,3,0,1,16,0
442219183,1696769257799961,634101908,101106532,214339,254823,0.025924683,3.668991e-05,0.8440393,1.4590772,1.4199219,1.4199219,0,0,26.581793,22.876001,13.538001,-0.053000003,0.53436774,0,nan,nan,3,0,1,16,0
442613423,1696769258199961,634102742,101107505,214362,254846,0.021316528,3.170775e-05,0.8428815,1.4557269,1.4199219,1.4199219,0,0,25.928453,23.567001,10.811001,-0.058000002,0.4300939,0,nan,nan,3,0,1,16,0
443219373,1696769258799961,634104030,101108561,214588,255071,0.022201538,3.5318626e-05,0.8411418,1.4490029,1.4199219,1.4199219,0,0,25.08062,24.132002,6.801,-0.656,0.27470016,0,nan,nan,3,0,1,16,0
443619175,1696769259199961,634104896,101109011,214847,255330,0.020736694,3.476796e-05,0.8391076,1.4449536,1.4199219,1.4199219,0,0,24.433178,24.019001,4.418,-0.74100006,0.18190444,0,nan,nan,3,0,1,16,0
444217267,1696769259799961,634106170,101109366,215273,255756,0.021026611,3.876529e-05,0.8350243,1.4381791,1.4199219,1.4199219,0,0,23.294687,23.236002,1.58,-0.48400003,0.06789342,0,nan,nan,3,0,1,16,0
444617528,1696769260199961,634106991,101109437,215404,255887,0.020736694,4.0579558e-05,0.8329752,1.4327366,1.4199219,1.4199219,0,0,22.606197,22.605001,0.165,-0.164,0.0072991406,0,nan,nan,3,0,1,16,0
445207446,1696769260799961,634108180,101109301,215346,255829,0.024337769,5.177408e-05,0.830921,1.4272734,1.4199219,1.4199219,0,0,21.683077,21.548,-2.4,0.282,-0.11092208,0,nan,nan,3,0,1,16,0
445618116,1696769261199961,634108938,101109036,215202,255685,0.023406982,5.2505267e-05,0.8300391,1.4231622,1.4199219,1.4199219,0,0,21.117403,20.687,-4.2250004,0.377,-0.20146391,0,nan,nan,3,0,1,16,0
446215129,1696769261799961,634110014,101108385,214989,255472,0.025924683,6.2935986e-05,0.8288617,1.419039,1.4199219,1.4199219,0,0,20.299147,19.164001,-6.683,0.36600003,-0.33554006,0,nan,nan,3,0,1,16,0
446608270,1696769262199961,634110685,101107788,214836,255320,0.026245117,6.582258e-05,0.8279776,1.417662,1.4199219,1.4199219,0,0,19.971476,18.247002,-8.110001,0.367,-0.4182345,0,nan,nan,3,0,1,16,0
447215523,1696769262799961,634111621,101106690,214687,255171,0.026901245,7.079432e-05,0.8288617,1.4197271,1.4199219,1.4199219,0,0,19.493494,16.657001,-10.126,-0.069000006,-0.54621726,0,nan,nan,3,0,1,16,0
447624045,1696769263199961,634112200,101105837,214740,255224,0.025924683,6.965099e-05,0.8288617,1.4211022,1.4199219,1.4199219,0,0,19.295507,15.711,-11.1970005,-0.32900003,-0.619189,0,nan,nan,3,0,1,16,0
448218166,1696769263799961,634113001,101104401,215093,255577,0.025924683,7.296496e-05,0.8288617,1.4217892,1.4199219,1.4199219,0,0,18.858013,13.977,-12.647,-0.56700003,-0.7354847,0,nan,nan,3,0,1,16,0
448615535,1696769264199961,634113484,101103368,215358,255842,0.025604248,7.502382e-05,0.8300391,1.4217892,1.4199219,1.4199219,0,0,18.481382,12.904,-13.22,-0.52900004,-0.79749376,0,nan,nan,3,0,1,16,0
449216393,1696769264799961,634114132,101101753,215517,256002,0.025604248,8.122559e-05,0.830921,1.4238483,1.4199219,1.4199219,0,0,17.755789,11.215,-13.764001,-0.21000001,-0.8870919,0,nan,nan,3,0,1,16,0
449615550,1696769265199961,634114514,101100627,215537,256022,0.02279663,7.4591866e-05,0.830921,1.4252193,1.4199219,1.4199219,0,0,17.48197,10.240001,-14.169001,0.033,-0.9449944,0,nan,nan,3,0,1,16,0
450217332,1696769265799961,634115016,101098863,215427,255912,0.02279663,7.626971e-05,0.830921,1.4252193,1.4199219,1.4199219,0,0,17.28901,8.464001,-15.075001,0.12200001,-1.0591977,0,nan,nan,3,0,1,16,0
450614474,1696769266199961,634115298,101097634,215399,255885,0.024337769,8.3798666e-05,0.83209544,1.4279574,1.4199219,1.4199219,0,0,17.042385,7.2500005,-15.423,-0.10700001,-1.1313722,0,nan,nan,3,0,1,16,0
451215714,1696769266799961,634115647,101095753,215531,256016,0.020736694,7.448905e-05,0.833854,1.4300077,1.4199219,1.4199219,0,0,16.685946,5.7440004,-15.665001,0.187,-1.2193421,0,nan,nan,3,0,1,16,0
451615364,1696769267199961,634115834,101094499,215406,255892,0.025604248,9.522168e-05,0.833854,1.4320549,1.4199219,1.4199219,0,0,16.401134,4.854,-15.663001,0.326,-1.2702798,0,nan,nan,3,0,1,16,0
452217437,1696769267799961,634116052,101092601,215288,255774,0.026565552,9.955499e-05,0.8350243,1.4340992,1.4199219,1.4199219,0,0,16.335333,3.288,-16.001001,-0.009000001,-1.3681303,0,nan,nan,3,0,1,16,0
452615143,1696769268199961,634116143,101091307,215375,255861,0.029586792,0.00011044891,0.83706844,1.4361407,1.4199219,1.4199219,0,0,16.370665,1.8330001,-16.264,-0.34800002,-1.458567,0,nan,nan,3,0,1,16,0
453215315,1696769268799962,634116195,101089355,215476,255963,0.03062439,0.000117237636,0.8391076,1.4381791,1.4199219,1.4199219,0,0,16.162273,0.19600001,-16.161001,0.052,-1.558669,0,nan,nan,3,0,1,16,0
453618392,1696769269199962,634116182,101088071,215509,255996,0.031677246,0.00012421557,0.8420121,1.438858,1.4199219,1.4199219,0,0,15.969294,-0.91600007,-15.943001,0.001,-1.6281879,0,nan,nan,3,0,1,16,0
454217405,1696769269799962,634116100,101086179,215413,255900,0.031341553,0.00012580103,0.8440393,1.4408927,1.4199219,1.4199219,0,0,15.788931,-2.2350001,-15.625001,0.393,-1.7128725,0,nan,nan,3,0,1,16,0
454614676,1696769270199962,634116003,101084932,215231,255719,0.03062439,0.00012172276,0.84606165,1.4422476,1.4199219,1.4199219,0,0,15.866424,-3.1780002,-15.540001,0.39000002,-1.7725194,0,nan,nan,3,0,1,16,0
455215608,1696769270799962,634115798,101083060,215057,255545,0.026245117,0.00010004276,0.84894234,1.4429245,1.4199219,1.4199219,0,0,16.19905,-4.6200004,-15.524001,0.26500002,-1.8600532,0,nan,nan,3,0,1,16,0
455620154,1696769271199962,634115614,101081824,214884,255372,0.032043457,0.000119980796,0.85009193,1.4429245,1.4199219,1.4199219,0,0,16.342924,-5.6840005,-15.3220005,0.14,-1.9260291,0,nan,nan,3,0,1,16,0
456207534,1696769271799962,634115266,101079980,214899,255388,0.034973145,0.00012297882,0.85095304,1.4429245,1.4199219,1.4199219,0,0,16.86369,-7.2430005,-15.229001,-0.023000002,-2.0147388,0,nan,nan,3,0,1,16,0
456615311,1696769272199962,634114988,101078772,214962,255451,0.03842163,0.00013087197,0.8520999,1.4429245,1.4199219,1.4199219,0,0,17.13584,-8.2560005,-15.014001,-0.23500001,-2.0735526,0,nan,nan,3,0,1,16,0
457215695,1696769272799962,634114496,101077011,215179,255669,0.04244995,0.0001405234,0.85410315,1.4442775,1.4199219,1.4199219,0,0,17.383638,-9.961,-14.243001,-0.326,-2.1810935,0,nan,nan,3,0,1,16,0
457623373,1696769273199962,634114117,101075892,215355,255845,0.034210205,0.00011135704,0.85410315,1.4429245,1.4199219,1.4199219,0,0,17.532001,-11.096001,-13.568001,-0.39900002,-2.2563012,0,nan,nan,3,0,1,16,0
458216124,1696769273799962,634113479,101074326,215540,256030,0.037261963,0.00011882896,0.85496026,1.4422476,1.4199219,1.4199219,0,0,17.709757,-12.537001,-12.5060005,-0.24300002,-2.3574324,0,nan,nan,3,0,1,16,0
458615835,1696769274199962,634113008,101073354,215608,256097,0.038024902,0.000117478274,0.85496026,1.4408927,1.4199219,1.4199219,0,0,17.991346,-13.6050005,-11.772,-0.112,-2.4283,0,nan,nan,3,0,1,16,0
459215482,1696769274799962,634112234,101072002,215680,256170,0.051086426,0.0001501821,0.85496026,1.438858,1.4199219,1.4199219,0,0,18.443552,-15.048,-10.6640005,-0.038000003,-2.5250745,0,nan,nan,3,0,1,16,0
459617120,1696769275199962,634111676,101071187,215666,256157,0.0524292,0.00015032574,0.85695684,1.4381791,1.4199219,1.4199219,0,0,18.67568,-15.989,-9.650001,0.102000006,-2.5985744,0,nan,nan,3,0,1,16,0
460207136,1696769275799962,634110783,101070102,215670,256161,0.0501709,0.00013752717,0.85809565,1.43478,1.4199219,1.4199219,0,0,19.102829,-17.179,-8.348001,0.333,-2.6892545,0,nan,nan,3,0,1,16,0
460617606,1696769276199962,634110149,101069480,215518,256008,0.05807495,0.00015080882,0.85894877,1.4320549,1.4199219,1.4199219,0,0,19.627213,-18.25,-7.2130003,0.37100002,-2.7652025,0,nan,nan,3,0,1,16,0
461214802,1696769276799962,634109131,101068721,215288,255779,0.058563232,0.00014134755,0.8609361,1.4279574,1.4199219,1.4199219,0,0,20.358532,-19.62,-5.42,0.386,-2.8720658,0,nan,nan,3,0,1,16,0
461607519,1696769277199962,634108405,101068341,215173,255663,0.05807495,0.00012881024,0.86291885,1.4272734,1.4199219,1.4199219,0,0,21.2353,-20.833,-4.104,0.28500003,-2.947088,0,nan,nan,3,0,1,16,0
462217547,1696769277799962,634107247,101068014,215121,255612,0.03881836,7.831824e-05,0.86206967,1.4252193,1.4101562,1.4101562,0,0,22.26326,-22.228,-1.251,-0.061000004,-3.0853715,0,nan,nan,3,0,1,16,0
462615271,1696769278199962,634106437,101068005,215126,255617,0.023406982,4.4651522e-05,0.85894877,1.4211022,1.4101562,1.4101562,0,0,22.89687,-22.877,0.92600006,-0.22800002,3.1011374,0,nan,nan,3,0,1,16,0
463216310,1696769278799962,634105187,101068307,215215,255706,0.021606445,3.7967937e-05,0.85410315,1.4162836,1.4101562,1.4101562,0,0,23.856634,-23.507002,4.0610003,-0.261,2.970524,0,nan,nan,3,0,1,16,0
463615019,1696769279199962,634104343,101068725,215318,255808,0.020736694,3.4840665e-05,0.85095304,1.4121405,1.4101562,1.4101562,0,0,24.396906,-23.591002,6.2170005,-0.15,2.8839185,0,nan,nan,3,0,1,16,0
464217911,1696769279799963,634103081,101069667,215305,255795,0.02279663,3.6100762e-05,0.84692687,1.4090251,1.4101562,1.4101562,0,0,25.129152,-23.289001,9.439,0.045,2.756527,0,nan,nan,3,0,1,16,0
464618097,1696769280199963,634102251,101070518,215232,255722,0.024337769,3.6556343e-05,0.8449066,1.4079851,1.4101562,1.4101562,0,0,25.802908,-22.928001,11.835001,0.172,2.6650841,0,nan,nan,3,0,1,16,0
465220059,1696769280799963,634101042,101072169,215091,255581,0.026245117,3.6068515e-05,0.8420121,1.4059027,1.4101562,1.4101562,0,0,26.975735,-21.885,15.77,0.21000001,2.5171845,0,nan,nan,3,0,1,16,0
465608366,1696769281199963,634100277,101073536,215016,255506,0.030975342,4.0563144e-05,0.8411418,1.4079851,1.4101562,1.4101562,0,0,27.633955,-20.676,18.334002,0.053000003,2.4161584,0,nan,nan,3,0,1,16,0
466213428,1696769281799963,634099228,101075984,214896,255385,0.03881836,4.6940455e-05,0.8420121,1.4111028,1.4101562,1.4101562,0,0,28.758036,-18.222,22.247002,0.23300001,2.2570617,0,nan,nan,3,0,1,16,0
466615130,1696769282199963,634098616,101077875,214802,255290,0.025604248,2.9328121e-05,0.8420121,1.4138683,1.4101562,1.4101562,0,0,29.5479,-15.839001,24.943,0.22600001,2.13656,0,nan,nan,3,0,1,16,0
467216318,1696769282799963,634097880,101081083,214670,255158,0.024032593,2.5708352e-05,0.8420121,1.4197271,1.4101562,1.4101562,0,0,30.5752,-11.315001,28.404001,0.162,1.9498875,0,nan,nan,3,0,1,16,0
467623343,1696769283199963,634097535,101083433,214518,255006,0.023406982,2.41432e-05,0.8420121,1.4252193,1.4101562,1.4101562,0,0,31.137644,-7.781,30.149002,0.216,1.8233696,0,nan,nan,3,0,1,16,0
468215175,1696769283799963,634097273,101087147,214468,254955,0.022506714,2.2714641e-05,0.8411418,1.4327366,1.4101562,1.4101562,0,0,31.47775,-1.9540001,31.417002,-0.051000003,1.6329119,0,nan,nan,3,0,1,16,0
468614793,1696769284199963,634097269,101089659,214548,255035,0.023712158,2.411854e-05,0.8411418,1.4381791,1.4101562,1.4101562,0,0,31.35582,1.5680001,31.316002,-0.192,1.5207678,0,nan,nan,3,0,1,16,0
469214406,1696769284799963,634097504,101093355,214761,255247,0.023406982,2.4506018e-05,0.8428815,1.4496766,1.4101562,1.4101562,0,0,30.908245,7.0870004,30.082,-0.409,1.3394259,0,nan,nan,3,0,1,16,0
469615911,1696769285199963,634097816,101095710,214937,255422,0.026565552,2.8662964e-05,0.8428815,1.4570678,1.4101562,1.4101562,0,0,30.447144,10.096001,28.721,-0.45100003,1.2327682,0,nan,nan,3,0,1,16,0
470215384,1696769285799963,634098465,101099008,215069,255554,0.029922485,3.4043755e-05,0.8428815,1.4617519,1.4101562,1.4101562,0,0,29.647102,13.976001,26.146002,-0.093,1.0799025,0,nan,nan,3,0,1,16,0
470615152,1696769286199963,634099009,101101018,215043,255528,0.026565552,3.133492e-05,0.8440393,1.4617519,1.4101562,1.4101562,0,0,29.11717,16.419,24.046001,-0.126,0.97169644,0,nan,nan,3,0,1,16,0
471212918,1696769286799963,634099980,101103687,215007,255491,0.031341553,3.932023e-05,0.8449066,1.4610838,1.4101562,1.4101562,0,0,28.233301,19.534,20.384,0.186,0.8066886,0,nan,nan,3,0,1,16,0
471615062,1696769287199963,634100711,101105207,214952,255436,0.030273438,3.98478e-05,0.8449066,1.4590772,1.4101562,1.4101562,0,0,27.563198,21.18,17.639,0.056,0.69443166,0,nan,nan,3,0,1,16,0
472214200,1696769287799963,634101909,101107080,214953,255436,0.02722168,3.7753478e-05,0.8449066,1.4557269,1.4101562,1.4101562,0,0,26.852169,23.118002,13.660001,-0.036000002,0.5336878,0,nan,nan,3,0,1,16,0
472614258,1696769288199963,634102751,101108072,214945,255428,0.02279663,3.3222255e-05,0.8440393,1.453041,1.4101562,1.4101562,0,0,26.195145,23.769001,11.01,-0.009000001,0.43378356,0,nan,nan,3,0,1,16,0
473212465,1696769288799963,634104047,101109165,215025,255508,0.020736694,3.252166e-05,0.8420121,1.4469796,1.4101562,1.4101562,0,0,25.252163,24.239,7.0780005,-0.21100001,0.28410935,0,nan,nan,3,0,1,16,0
473612686,1696769289199963,634104917,101109635,215076,255559,0.02015686,3.332175e-05,0.83998,1.4422476,1.4101562,1.4101562,0,0,24.59508,24.169,4.558,-0.045,0.18639946,0,nan,nan,3,0,1,16,0
474209652,1696769289799963,634106209,101109990,215075,255558,0.022506714,3.972513e-05,0.83706844,1.4361407,1.4101562,1.4101562,0,0,23.802565,23.764002,1.3540001,-0.031000001,0.056915402,0,nan,nan,3,0,1,16,0
474619103,1696769290199963,634107054,101110021,215068,255551,0.021026611,3.887428e-05,0.8350243,1.4320549,1.4101562,1.4101562,0,0,23.256992,23.250002,-0.57000005,-0.013,-0.02451122,0,nan,nan,3,0,1,16,0
475208950,1696769290799964,634108279,101109763,215073,255556,0.024963379,4.9275845e-05,0.8329752,1.4259043,1.4101562,1.4101562,0,0,22.50832,22.197,-3.7280002,-0.14,-0.16639768,0,nan,nan,3,0,1,16,0
475614112,1696769291199964,634109058,101109392,215155,255639,0.026245117,5.459372e-05,0.83209544,1.4211022,1.4101562,1.4101562,0,0,21.926687,21.221,-5.5140004,-0.21100001,-0.25421536,0,nan,nan,3,0,1,16,0
476214959,1696769291799964,634110158,101108591,215280,255763,0.02722168,6.0771024e-05,0.830921,1.4162836,1.4101562,1.4101562,0,0,21.164774,19.746,-7.6180005,-0.096,-0.3682051,0,nan,nan,3,0,1,16,0
476614024,1696769292199964,634110846,101107931,215273,255757,0.026901245,6.3385894e-05,0.830921,1.4149039,1.4101562,1.4101562,0,0,20.601135,18.643002,-8.766001,0.05,-0.4395274,0,nan,nan,3,0,1,16,0
477214794,1696769292799964,634111798,101106756,215285,255769,0.026901245,6.838022e-05,0.83209544,1.4149039,1.4101562,1.4101562,0,0,19.834492,16.741001,-10.637,-0.014,-0.5660332,0,nan,nan,3,0,1,16,0
477620022,1696769293199964,634112374,101105866,215250,255734,0.024337769,6.5105e-05,0.830921,1.4149039,1.4101562,1.4101562,0,0,19.335306,15.507001,-11.548,0.17500001,-0.64009786,0,nan,nan,3,0,1,16,0
478214887,1696769293799964,634113155,101104406,215089,255573,0.025924683,7.424587e-05,0.83209544,1.4149039,1.4101562,1.4101562,0,0,18.687895,13.695001,-12.713,0.25300002,-0.74822956,0,nan,nan,3,0,1,16,0
478615089,1696769294199964,634113622,101103357,215026,255511,0.022506714,6.751873e-05,0.8329752,1.4149039,1.4101562,1.4101562,0,0,18.257624,12.377001,-13.422001,0.025,-0.8258815,0,nan,nan,3,0,1,16,0
479209284,1696769294799964,634114238,101101694,215045,255530,0.024032593,7.532066e-05,0.8329752,1.4149039,1.4404297,1.4404297,0,0,17.862892,10.629001,-14.356001,-0.112,-0.9334758,0,nan,nan,3,0,1,15,0
479615268,1696769295199964,634114594,101100521,215106,255591,0.026245117,8.51132e-05,0.8329752,1.4162836,1.4101562,1.4101562,0,0,17.563908,9.329,-14.877001,-0.36800003,-1.0107061,0,nan,nan,3,0,1,16,0
480213335,1696769295799964,634115057,101098692,215324,255809,0.026245117,8.605208e-05,0.8350243,1.419039,1.4101562,1.4101562,0,0,17.469536,7.9020004,-15.574,-0.44000003,-1.1012589,0,nan,nan,3,0,1,16,0
480607273,1696769296199964,634115318,101097433,215449,255935,0.025604248,8.6080196e-05,0.83706844,1.4217892,1.4101562,1.4101562,0,0,17.249754,6.7520003,-15.870001,-0.328,-1.1685388,0,nan,nan,3,0,1,16,0
481214949,1696769296799964,634115630,101095492,215629,256115,0.025604248,8.7902336e-05,0.8391076,1.4252193,1.4101562,1.4101562,0,0,17.069511,4.984,-16.323,-0.296,-1.2744513,0,nan,nan,3,0,1,16,0
481616144,1696769297199964,634115792,101094177,215657,256143,0.021316528,7.381746e-05,0.83998,1.4272734,1.4101562,1.4101562,0,0,16.993452,4.02,-16.511002,-0.062000003,-1.3319691,0,nan,nan,3,0,1,16,0
482213263,1696769297799964,634115969,101092184,215559,256045,0.027893066,9.877913e-05,0.8411418,1.4300077,1.4101562,1.4101562,0,0,16.808823,2.592,-16.603,0.39800003,-1.41593,0,nan,nan,3,0,1,16,0
482610589,1696769298199964,634116042,101090852,215389,255876,0.025283813,9.032394e-05,0.8428815,1.4306904,1.4101562,1.4101562,0,0,16.736813,1.5280001,-16.661001,0.44400004,-1.479341,0,nan,nan,3,0,1,16,0
483208936,1696769298799964,634116076,101088819,215139,255626,0.026901245,9.1250884e-05,0.8449066,1.4320549,1.4101562,1.4101562,0,0,17.171106,-0.25500003,-17.168001,0.20400001,-1.5856484,0,nan,nan,3,0,1,16,0
483609981,1696769299199964,634116044,101087434,215045,255532,0.024963379,8.140225e-05,0.84606165,1.4320549,1.4101562,1.4101562,0,0,17.512884,-1.483,-17.449001,0.185,-1.655583,0,nan,nan,3,0,1,16,0
484210786,1696769299799964,634115912,101085342,215030,255518,0.02722168,8.807856e-05,0.84807914,1.4327366,1.4101562,1.4101562,0,0,17.58087,-3.3910003,-17.25,-0.16000001,-1.764901,0,nan,nan,3,0,1,16,0
484613486,1696769300199964,634115766,101083964,215132,255620,0.02923584,9.3454844e-05,0.85009193,1.4340992,1.4101562,1.4101562,0,0,17.69034,-4.668,-17.060001,-0.33800003,-1.8378814,0,nan,nan,3,0,1,16,0
