timestamp,time_utc_usec,lat,lon,alt,alt_ellipsoid,s_variance_m_s,c_variance_rad,eph,epv,hdop,vdop,noise_per_ms,jamming_indicator,vel_m_s,vel_n_m_s,vel_e_m_s,vel_d_m_s,cog_rad,timestamp_time_relative,heading,heading_offset,fix_type,jamming_state,vel_ned_valid,satellites_used,selected
11807238,1729669479399944,625764270,114027654,671284,709179,0.0010890961,0.48685557,0.013999288,0.01699892,0.66015625,1.1298828,0,0,0.05710517,-0.046000004,-0.011000001,0.032,-2.9068701,0,nan,nan,6,0,1,17,0
12188002,1729669479799944,625764270,114027654,671288,709183,0.00028896332,0.3419684,0.013999288,0.01699892,0.66015625,1.1298828,0,0,0.029681645,-0.026,-0.013,-0.006,-2.6779451,0,nan,nan,6,0,1,17,0
12806547,1729669480399944,625764270,114027654,671288,709182,0.0013694763,1.8889327,0.013999288,0.01699892,0.66015625,1.1298828,0,0,0.09394147,-0.007,0.026,-0.09,1.833791,0,nan,nan,6,0,1,17,0
13192294,1729669480799944,625764270,114027654,671287,709182,0.0013694763,1.469395,0.013999288,0.01699892,0.66015625,1.1298828,0,0,0.089375615,0.016,-0.026,0.08400001,-1.0191413,0,nan,nan,6,0,1,17,0
13818382,1729669481399944,625764270,114027655,671281,709176,0.00014400482,0.30902314,0.013999288,0.01699892,0.66015625,1.1298828,0,0,0.021587035,0.0050000004,0.021000002,0.0,1.3370532,0,nan,nan,6,0,1,17,0
14194900,1729669481799944,625764270,114027654,671299,709194,0.0010890961,24.202135,0.013999288,0.01699892,0.66015625,1.1298828,0,0,0.007,0.006,-0.003,-0.002,-0.4636476,0,nan,nan,6,0,1,17,0
14796003,1729669482399944,625764270,114027654,671292,709187,0.0015211105,1.1727912,0.013999288,0.01699892,0.66015625,1.1298828,0,0,0.07783316,0.036000002,-0.001,-0.069000006,-0.027770637,0,nan,nan,6,0,1,17,0
15196394,1729669482799944,625764270,114027654,671294,709188,0.0022087097,0.8517969,0.013999288,0.01699892,0.66015625,1.1298828,0,0,0.0601415,-0.048,0.017,0.032,2.8012106,0,nan,nan,6,0,1,17,0
15808189,1729669483399944,625764270,114027654,671296,709191,0.003364563,14.692414,0.013999288,0.01699892,0.66015625,1.1298828,0,0,0.04747631,-0.015000001,-0.002,-0.045,-3.009041,0,nan,nan,6,0,1,16,0
16195421,1729669483799944,625764270,114027654,671293,709188,0.0022087097,4.55404,0.013999288,0.01699892,0.72021484,1.2197266,0,0,0.1102225,-0.014,-0.017,0.108,-2.2597208,0,nan,nan,6,0,1,17,0
16807668,1729669484399944,625764270,114027653,671293,709188,0.00044107437,1.5209459,0.013999288,0.01699892,0.72021484,1.2197266,0,0,0.018814888,-0.001,0.017,0.008,1.6295521,0,nan,nan,6,0,1,17,0
17195112,1729669484799944,625764270,114027653,671286,709181,0.00016903877,0.08477371,0.013999288,0.01699892,0.72021484,1.2197266,0,0,0.044833023,0.025,-0.037,-0.004,-0.97658265,0,nan,nan,6,0,1,17,0
17804887,1729669485399944,625764270,114027653,671290,709185,0.0009608269,0.57124066,0.013999288,0.01699892,0.72021484,1.2197266,0,0,0.09347727,0.041,0.001,-0.08400001,0.02438541,0,nan,nan,6,0,1,17,0
18193283,1729669485799944,625764270,114027654,671290,709185,8.100271e-05,0.2055906,0.013999288,0.01699892,0.66015625,1.1298828,0,0,0.021400936,0.015000001,0.013,0.008,0.7140907,0,nan,nan,6,0,1,17,0
18807785,1729669486399944,625764270,114027654,671292,709186,0.0005288124,4.2304983,0.013999288,0.01699892,0.66015625,1.1298828,0,0,0.030149627,-0.0050000004,0.010000001,-0.028,2.0344439,0,nan,nan,6,0,1,17,0
19196554,1729669486799944,625764271,114027653,671295,709189,0.0020256042,0.7067705,0.013999288,0.01699892,0.66015625,1.1298828,0,0,0.05680669,0.045,0.029000001,-0.019000001,0.5724598,0,nan,nan,6,0,1,17,0
19808282,1729669487399944,625764270,114027654,671299,709193,0.0013694763,14.118311,0.013999288,0.01699892,0.66015625,1.1298828,0,0,0.022293499,-0.004,-0.009000001,-0.020000001,-1.9890206,0,nan,nan,6,0,1,17,0
20198161,1729669487799944,625764270,114027653,671302,709196,0.0016813278,42.03319,0.013999288,0.01699892,0.66015625,1.1298828,0,0,0.038522724,0.002,-0.006,-0.038000003,-1.2490457,0,nan,nan,6,0,1,17,0
20808136,1729669488399944,625764270,114027653,671298,709193,0.0016813278,2.562999,0.013999288,0.01699892,0.66015625,1.1298828,0,0,0.07266361,-0.020000001,-0.016,0.068,-2.4668517,0,nan,nan,6,0,1,17,0
21195467,1729669488799944,625764270,114027653,671307,709201,0.00032401085,0.15197507,0.013999288,0.021999767,0.66015625,1.1298828,0,0,0.0680588,0.046000004,-0.004,0.05,-0.08673833,0,nan,nan,6,0,1,17,0
21800552,1729669489399944,625764270,114027653,671306,709201,0.0010890961,1.4387001,0.013999288,0.021999767,0.66015625,1.1298828,0,0,0.116301335,0.009000001,0.026,-0.113000005,1.237552,0,nan,nan,6,0,1,17,0
22808709,1729669490399944,625764270,114027653,671299,709194,0.00040006638,4.4451814,0.013999288,0.02000166,0.66015625,1.1298828,0,0,0.011224973,-0.003,0.009000001,0.006,1.8925468,0,nan,nan,6,0,1,17,0
23192115,1729669490799944,625764271,114027654,671302,709196,0.0035991669,3.076211,0.013999288,0.018000301,0.66015625,1.1298828,0,0,0.097216256,-0.021000002,0.027,0.091000006,2.2318397,0,nan,nan,6,0,1,17,0
23798302,1729669491399944,625764271,114027653,671294,709189,0.0012254715,0.603978,0.013999288,0.018999098,0.66015625,1.1298828,0,0,0.06438168,-0.045,-0.002,-0.046000004,-3.0971775,0,nan,nan,6,0,1,17,0
24197147,1729669491799944,625764271,114027653,671300,709195,0.0015211105,2.4936235,0.013999288,0.018000301,0.66015625,1.1298828,0,0,0.08181687,-0.013,0.021000002,0.078,2.1251037,0,nan,nan,6,0,1,17,0
24808413,1729669492399944,625764270,114027654,671304,709198,0.0026016235,1.6623791,0.013999288,0.018000301,0.66015625,1.1298828,0,0,0.09831073,0.037,-0.014,-0.09,-0.36172926,0,nan,nan,6,0,1,17,0
25196269,1729669492799944,625764271,114027655,671290,709185,0.0028095245,0.5140941,0.013999288,0.01699892,0.66015625,1.1298828,0,0,0.13671137,0.068,0.029000001,-0.115,0.40311557,0,nan,nan,6,0,1,17,0
25801506,1729669493399944,625764270,114027655,671284,709179,0.0016002655,21.62521,0.013999288,0.01699892,0.66015625,1.1298828,0,0,0.031208975,0.007,0.0050000004,0.030000001,0.6202495,0,nan,nan,6,0,1,17,0
26193601,1729669493799945,625764270,114027655,671287,709181,0.0026016235,5.7813845,0.013999288,0.01699892,0.66015625,1.1298828,0,0,0.037563283,0.021000002,0.003,-0.031000001,0.14189705,0,nan,nan,6,0,1,17,0
26808474,1729669494399945,625764270,114027655,671283,709178,0.0015211105,0.55232775,0.013999288,0.018000301,0.66015625,1.1298828,0,0,0.06479198,-0.045,-0.027,0.038000003,-2.6011732,0,nan,nan,6,0,1,17,0
27807463,1729669495399945,625764270,114027654,671291,709186,0.0014438629,90.24142,0.013999288,0.018000301,0.66015625,1.1298828,0,0,0.032249033,0.004,0.0,-0.032,0.0,0,nan,nan,6,0,1,17,0
28198005,1729669495799945,625764270,114027654,671288,709183,0.0016002655,6.038737,0.013999288,0.018000301,0.66015625,1.1298828,0,0,0.074793056,0.012,0.011000001,0.07300001,0.7419473,0,nan,nan,6,0,1,17,0
28810139,1729669496399945,625764271,114027654,671294,709189,0.0015211105,41.11109,0.013999288,0.01699892,0.66015625,1.1298828,0,0,0.05036864,0.006,0.001,0.05,0.16514868,0,nan,nan,6,0,1,17,0
29195372,1729669496799945,625764271,114027654,671288,709183,0.00025606155,0.6039187,0.013999288,0.01699892,0.66015625,1.1298828,0,0,0.021189623,0.018000001,-0.010000001,-0.0050000004,-0.5070985,0,nan,nan,6,0,1,17,0
29806336,1729669497399945,625764270,114027654,671285,709180,0.0006761551,9.262397,0.013999288,0.01699892,0.66015625,1.1298828,0,0,0.05467175,-0.003,-0.008,0.054,-1.929567,0,nan,nan,6,0,1,17,0
30196843,1729669497799945,625764271,114027653,671300,709195,0.0014438629,5.553319,0.013999288,0.016001923,0.66015625,1.1298828,0,0,0.06697015,0.014,-0.008,-0.065000005,-0.51914614,0,nan,nan,6,0,1,17,0
30812268,1729669498399945,625764270,114027654,671296,709190,0.002401352,1.6583921,0.013999288,0.016001923,0.66015625,1.1298828,0,0,0.068534665,-0.038000003,0.002,0.057000004,3.0890095,0,nan,nan,6,0,1,17,0
31196315,1729669498799945,625764271,114027654,671306,709200,0.0009608269,2.9293497,0.013999288,0.016001923,0.66015625,1.1298828,0,0,0.048507735,0.018000001,0.002,-0.045,0.11065722,0,nan,nan,6,0,1,17,0
31809328,1729669499399945,625764270,114027653,671305,709199,0.0010242462,2.9015477,0.013999288,0.01699892,0.66015625,1.1298828,0,0,0.071512245,0.008,0.017,-0.069000006,1.1309538,0,nan,nan,6,0,1,17,0
32198301,1729669499799945,625764271,114027653,671309,709204,0.0008997917,2.0780406,0.013999288,0.016001923,0.66015625,1.1298828,0,0,0.044204075,-0.017,0.012,-0.039,2.5269299,0,nan,nan,6,0,1,17,0
32809494,1729669500399945,625764271,114027653,671314,709209,0.0043563843,11.774012,0.013999288,0.016001923,0.66015625,1.1298828,0,0,0.07549173,-0.017,0.009000001,0.07300001,2.6546934,0,nan,nan,6,0,1,17,0
33195245,1729669500799945,625764270,114027653,671307,709202,0.0008997917,0.2224454,0.013999288,0.016001923,0.66015625,1.1298828,0,0,0.06870954,0.038000003,-0.051000003,-0.026,-0.9304399,0,nan,nan,6,0,1,17,0
33803571,1729669501399945,625764270,114027653,671298,709193,0.0010890961,0.84952885,0.013999288,0.016001923,0.66015625,1.1298828,0,0,0.06396093,-0.021000002,-0.029000001,0.053000003,-2.1975393,0,nan,nan,6,0,1,17,0
34201175,1729669501799945,625764270,114027654,671287,709182,0.00032401085,0.28125942,0.013999288,0.01699892,0.66015625,1.1298828,0,0,0.037523326,0.024,0.024,0.016,0.7853982,0,nan,nan,6,0,1,17,0
34808564,1729669502399945,625764270,114027654,671290,709184,0.0017642975,0.9179486,0.013999288,0.01699892,0.66015625,1.1298828,0,0,0.1476584,-0.031000001,-0.031000001,0.141,-2.3561945,0,nan,nan,6,0,1,17,0
35198239,1729669502799945,625764271,114027654,671299,709193,0.00040006638,0.20073578,0.013999288,0.01699892,0.66015625,1.1298828,0,0,0.045188494,0.043,-0.012,-0.007,-0.27214587,0,nan,nan,6,0,1,17,0
35808542,1729669503399945,625764270,114027654,671295,709190,0.0023040771,1.6260246,0.013999288,0.01699892,0.66015625,1.1298828,0,0,0.054203324,0.036000002,-0.011000001,-0.039,-0.2965458,0,nan,nan,6,0,1,17,0
36192988,1729669503799945,625764270,114027654,671282,709177,0.00014400482,0.40001333,0.013999288,0.01699892,0.66015625,1.1298828,0,0,0.019000001,-0.006,0.018000001,-0.001,1.8925468,0,nan,nan,6,0,1,17,0
36803436,1729669504399945,625764270,114027654,671288,709183,0.0021152496,3.6096408,0.013999288,0.01699892,0.66015625,1.1298828,0,0,0.040124808,-0.019000001,0.015000001,0.032,2.4733033,0,nan,nan,6,0,1,17,0
37192901,1729669504799945,625764270,114027654,671288,709183,0.0020256042,4.593206,0.013999288,0.01699892,0.66015625,1.1298828,0,0,0.057939626,0.0,-0.021000002,-0.054,-1.5707964,0,nan,nan,6,0,1,17,0
37806806,1729669505399945,625764270,114027654,671283,709178,0.0015211105,1.1250817,0.013999288,0.01699892,0.66015625,1.1298828,0,0,0.062064484,-0.014,-0.034,0.05,-1.9614034,0,nan,nan,6,0,1,17,0
38192202,1729669505799945,625764270,114027654,671302,709197,0.0032482147,1.045787,0.013999288,0.01699892,0.66015625,1.1298828,0,0,0.15347639,0.055000003,0.009000001,-0.143,0.16219883,0,nan,nan,6,0,1,17,0
38807028,1729669506399945,625764270,114027654,671290,709185,0.0009608269,1.7533334,0.013999288,0.01699892,0.66015625,1.1298828,0,0,0.02393742,-0.008,-0.022000002,0.0050000004,-1.9195673,0,nan,nan,6,0,1,17,0
39195030,1729669506799945,625764270,114027654,671289,709184,0.0013694763,1.4805148,0.013999288,0.01699892,0.66015625,1.1298828,0,0,0.061975803,-0.027,-0.014,0.054,-2.6632402,0,nan,nan,6,0,1,17,0
39808625,1729669507399945,625764271,114027654,671289,709184,0.0013694763,8.350464,0.013999288,0.01699892,0.66015625,1.1298828,0,0,0.015652478,0.010000001,-0.008,-0.009000001,-0.6747409,0,nan,nan,6,0,1,17,0
40197494,1729669507799945,625764270,114027654,671282,709177,0.0016002655,6.038737,0.013999288,0.016001923,0.66015625,1.1298828,0,0,0.030675724,-0.003,0.016,0.026,1.7561443,0,nan,nan,6,0,1,17,0
40802947,1729669508399945,625764270,114027654,671286,709180,0.00036096573,2.4894183,0.013999288,0.016001923,0.66015625,1.1298828,0,0,0.013038405,0.008,-0.009000001,0.0050000004,-0.844154,0,nan,nan,6,0,1,17,0
41195388,1729669508799945,625764270,114027654,671281,709175,0.0027046204,1.6882772,0.013999288,0.016001923,0.66015625,1.1298828,0,0,0.06641536,-0.039,0.009000001,0.053000003,2.9147937,0,nan,nan,6,0,1,17,0
41808302,1729669509399945,625764270,114027653,671293,709187,0.0006251335,1.2281598,0.013999288,0.01699892,0.66015625,1.1298828,0,0,0.027658636,-0.0050000004,-0.022000002,0.016,-1.7942729,0,nan,nan,6,0,1,17,0
42189143,1729669509799945,625764270,114027654,671284,709178,0.0017642975,1.5301799,0.013999288,0.01699892,0.66015625,1.1298828,0,0,0.06981404,-0.033,-0.008,0.061000004,-2.9037566,0,nan,nan,6,0,1,17,0
42812144,1729669510399945,625764270,114027655,671279,709174,0.0010242462,0.33461162,0.013999288,0.01699892,0.66015625,1.1298828,0,0,0.07524627,-0.006,0.055000003,0.051000003,1.6794575,0,nan,nan,6,0,1,17,0
43197004,1729669510799945,625764270,114027654,671280,709175,0.002916336,11.173701,0.013999288,0.01699892,0.66015625,1.1298828,0,0,0.057323646,0.006,-0.015000001,0.055000003,-1.19029,0,nan,nan,6,0,1,17,0
43808221,1729669511399945,625764270,114027654,671283,709178,0.0015211105,3.9407,0.013999288,0.01699892,0.66015625,1.1298828,0,0,0.077530645,0.019000001,-0.0050000004,-0.075,-0.2573237,0,nan,nan,6,0,1,17,0
44208115,1729669511799945,625764270,114027653,671288,709183,0.000729084,16.201866,0.013999288,0.016001923,0.66015625,1.1298828,0,0,0.02204541,-0.003,-0.006,-0.021000002,-2.0344439,0,nan,nan,6,0,1,17,0
44807298,1729669512399945,625764270,114027653,671291,709186,0.0007839203,0.6846465,0.013999288,0.01699892,0.66015625,1.1298828,0,0,0.056302756,-0.032,-0.011000001,0.045,-2.8104966,0,nan,nan,6,0,1,17,0
45193658,1729669512799945,625764270,114027653,671288,709183,0.00025606155,0.14674012,0.013999288,0.016001923,0.66015625,1.1298828,0,0,0.041964274,-0.031000001,-0.028,-0.004,-2.4069982,0,nan,nan,6,0,1,17,0
45807694,1729669513399945,625764270,114027654,671270,709164,0.00025606155,0.09171259,0.013999288,0.016001923,0.66015625,1.1298828,0,0,0.05397222,-0.046000004,-0.026,-0.011000001,-2.6271415,0,nan,nan,6,0,1,17,0
46188360,1729669513799945,625764270,114027654,671272,709167,0.00040006638,0.24619468,0.013999288,0.016001923,0.66015625,1.1298828,0,0,0.04691482,0.040000003,0.0050000004,0.024,0.124354996,0,nan,nan,6,0,1,17,0
47198069,1729669514799945,625764270,114027654,671288,709182,0.0035991669,2.1826355,0.013999288,0.01699892,0.66015625,1.1298828,0,0,0.05842089,0.040000003,-0.007,-0.042000003,-0.17324567,0,nan,nan,6,0,1,17,0
47809361,1729669515399945,625764270,114027654,671288,709183,0.0022087097,4.247518,0.013999288,0.01699892,0.66015625,1.1298828,0,0,0.048672374,-0.018000001,0.014,0.043,2.4805496,0,nan,nan,6,0,1,17,0
48197320,1729669515799946,625764270,114027654,671282,709177,0.0022087097,4.2971005,0.013999288,0.01699892,0.66015625,1.1298828,0,0,0.12114042,-0.017,0.015000001,-0.119,2.4186134,0,nan,nan,6,0,1,17,0
48809057,1729669516399946,625764270,114027654,671285,709179,0.0007839203,4.404047,0.013999288,0.01699892,0.66015625,1.1298828,0,0,0.051749397,0.003,-0.013,0.05,-1.3439975,0,nan,nan,6,0,1,17,0
49197467,1729669516799946,625764270,114027654,671286,709181,0.0026016235,2.555622,0.013999288,0.01699892,0.66015625,1.1298828,0,0,0.05274467,-0.027,0.017,0.042000003,2.5796711,0,nan,nan,6,0,1,17,0
49807071,1729669517399946,625764270,114027654,671292,709187,0.0012960434,0.98633444,0.013999288,0.01699892,0.66015625,1.1298828,0,0,0.041400485,-0.033,-0.015000001,0.020000001,-2.714965,0,nan,nan,6,0,1,17,0
50196935,1729669517799946,625764270,114027654,671291,709185,0.0020256042,4.393935,0.013999288,0.01699892,0.66015625,1.1298828,0,0,0.06655825,0.019000001,0.010000001,-0.063,0.48447794,0,nan,nan,6,0,1,17,0
50808486,1729669518399946,625764270,114027654,671291,709185,0.0034809113,29.751371,0.013999288,0.01699892,0.66015625,1.1298828,0,0,0.059983335,-0.006,-0.009000001,0.059000004,-2.158799,0,nan,nan,6,0,1,17,0
51197129,1729669518799946,625764270,114027654,671284,709179,0.0017642975,1.9581547,0.013999288,0.01699892,0.66015625,1.1298828,0,0,0.07159609,-0.001,-0.030000001,-0.065000005,-1.6041173,0,nan,nan,6,0,1,17,0
51807167,1729669519399946,625764270,114027654,671290,709184,0.004096985,14.0307665,0.013999288,0.01699892,0.66015625,1.1298828,0,0,0.020880613,-0.016,0.006,0.012,2.782822,0,nan,nan,6,0,1,17,0
52198148,1729669519799946,625764270,114027654,671293,709187,0.0043563843,5.312664,0.013999288,0.01699892,0.66015625,1.1298828,0,0,0.06468385,0.026,-0.012,-0.058000002,-0.43240777,0,nan,nan,6,0,1,17,0
52807854,1729669520399946,625764270,114027654,671305,709199,0.0031356812,4.8918576,0.013999288,0.01699892,0.66015625,1.1298828,0,0,0.063285075,0.025,0.004,-0.058000002,0.15865527,0,nan,nan,6,0,1,17,0
53195901,1729669520799946,625764270,114027653,671306,709200,0.00084114075,0.353272,0.013999288,0.01699892,0.66015625,1.1298828,0,0,0.0531225,-0.035,-0.034,0.021000002,-2.3706863,0,nan,nan,6,0,1,17,0
53807403,1729669521399946,625764270,114027654,671296,709191,0.0011558533,1.3598272,0.013999288,0.01699892,0.66015625,1.1298828,0,0,0.036523968,0.011000001,0.027,-0.022000002,1.1839206,0,nan,nan,6,0,1,18,0
54204000,1729669521799946,625764270,114027654,671306,709201,0.003364563,3.3083217,0.013999288,0.01699892,0.64990234,1.0703125,0,0,0.08984988,-0.021000002,0.024,-0.08400001,2.2896264,0,nan,nan,6,0,1,18,0
54811462,1729669522399946,625764270,114027654,671301,709195,0.0014438629,0.9024143,0.013999288,0.01699892,0.64990234,1.0703125,0,0,0.09033825,-0.032,0.024,-0.081,2.4980917,0,nan,nan,6,0,1,18,0
55197492,1729669522799946,625764270,114027654,671295,709190,0.00025606155,0.13165118,0.013999288,0.01699892,0.64990234,1.0703125,0,0,0.04802083,-0.037,-0.024,-0.019000001,-2.566168,0,nan,nan,6,0,1,18,0
55802719,1729669523399946,625764270,114027654,671292,709186,0.0013694763,12.919585,0.013999288,0.016001923,0.64990234,1.0703125,0,0,0.068775,-0.009000001,-0.0050000004,-0.068,-2.6344943,0,nan,nan,6,0,1,18,0
56201947,1729669523799946,625764271,114027654,671298,709193,0.0016002655,0.31744996,0.013999288,0.016001923,0.64990234,1.0703125,0,0,0.11385078,0.071,0.0,-0.089,0.0,0,nan,nan,6,0,1,18,0
56808284,1729669524399946,625764270,114027654,671296,709191,0.0016002655,20.003315,0.013999288,0.016001923,0.64990234,1.0703125,0,0,0.035156794,-0.004,0.008,0.034,2.0344439,0,nan,nan,6,0,1,18,0
57188532,1729669524799946,625764271,114027653,671303,709198,0.002401352,7.062799,0.013999288,0.016001923,0.64990234,1.0703125,0,0,0.05706137,-0.014,0.012,-0.054,2.4329665,0,nan,nan,6,0,1,18,0
57806971,1729669525399946,625764271,114027654,671296,709190,0.0009608269,1.6652111,0.013999288,0.01699892,0.64990234,1.0703125,0,0,0.027802879,-0.001,-0.024,0.014,-1.6124389,0,nan,nan,6,0,1,18,0
58196570,1729669525799946,625764271,114027654,671295,709190,0.002500534,1.1118425,0.013999288,0.016001923,0.64990234,1.0703125,0,0,0.080461174,0.035,0.032,-0.065000005,0.74065197,0,nan,nan,6,0,1,18,0
58808098,1729669526399946,625764270,114027653,671297,709192,0.0016002655,0.8580511,0.013999288,0.01699892,0.64990234,1.0703125,0,0,0.1025378,-0.043,0.004,0.093,3.0488362,0,nan,nan,6,0,1,18,0
59198145,1729669526799946,625764271,114027654,671295,709190,8.100271e-05,0.14336763,0.013999288,0.01699892,0.64990234,1.0703125,0,0,0.024289917,0.006,0.023000002,0.0050000004,1.315614,0,nan,nan,6,0,1,18,0
60197140,1729669527799946,625764270,114027655,671273,709168,0.002500534,6.9459267,0.013999288,0.01699892,0.64990234,1.0703125,0,0,0.04517743,-0.018000001,-0.006,0.041,-2.819842,0,nan,nan,6,0,1,18,0
61189999,1729669528799946,625764270,114027655,671289,709184,0.0031356812,3.2494106,0.013999288,0.01699892,0.64990234,1.0703125,0,0,0.079334736,0.017,0.026,-0.07300001,0.99172205,0,nan,nan,6,0,1,18,0
61810362,1729669529399946,625764270,114027655,671281,709175,0.0016813278,4.267329,0.013999288,0.01699892,0.64990234,1.0703125,0,0,0.09216291,0.013,0.015000001,-0.09,0.8567056,0,nan,nan,6,0,1,18,0
62197559,1729669529799946,625764270,114027654,671289,709183,0.0006251335,0.10934642,0.013999288,0.01699892,0.64990234,1.0703125,0,0,0.08601163,0.071,-0.026,0.041,-0.3510309,0,nan,nan,6,0,1,18,0
62803098,1729669530399946,625764270,114027654,671298,709193,0.0005288124,0.28053707,0.013999288,0.01699892,0.64990234,1.0703125,0,0,0.04414748,-0.043,-0.006,0.008,-3.0029528,0,nan,nan,6,0,1,18,0
63196260,1729669530799946,625764270,114027653,671291,709186,0.00022494793,0.75485873,0.013999288,0.01699892,0.64990234,1.0703125,0,0,0.017291617,0.003,-0.017,0.001,-1.3961241,0,nan,nan,6,0,1,18,0
63808102,1729669531399946,625764270,114027654,671291,709186,0.0006761551,0.22843073,0.013999288,0.016001923,0.64990234,1.0703125,0,0,0.06523803,0.044000003,-0.032,0.036000002,-0.6287963,0,nan,nan,6,0,1,18,0
64195445,1729669531799946,625764270,114027654,671296,709190,0.00014400482,0.1797813,0.013999288,0.016001923,0.64990234,1.0703125,0,0,0.028301945,-0.015000001,0.024,0.0,2.1293955,0,nan,nan,6,0,1,18,0
64811531,1729669532399946,625764270,114027654,671290,709185,0.0009608269,106.75854,0.013999288,0.016001923,0.64990234,1.0703125,0,0,0.02022375,-0.003,0.0,-0.020000001,3.1415927,0,nan,nan,6,0,1,18,0
65196554,1729669532799946,625764270,114027653,671293,709188,0.00032401085,0.17188902,0.013999288,0.016001923,0.64990234,1.0703125,0,0,0.045044426,-0.042000003,-0.011000001,-0.012,-2.8854413,0,nan,nan,6,0,1,18,0
65808356,1729669533399946,625764270,114027653,671289,709183,0.0013694763,0.49871683,0.013999288,0.016001923,0.64990234,1.0703125,0,0,0.06301587,0.039,-0.035,-0.035,-0.7313967,0,nan,nan,6,0,1,18,0
66198706,1729669533799946,625764270,114027654,671279,709174,0.0012960434,1.0502783,0.013999288,0.016001923,0.64990234,1.0703125,0,0,0.08101235,-0.035,-0.003,0.07300001,-3.0560873,0,nan,nan,6,0,1,18,0
66812580,1729669534399946,625764270,114027654,671286,709181,0.0017642975,3.8606062,0.013999288,0.016001923,0.64990234,1.0703125,0,0,0.02611513,-0.021000002,0.004,0.015000001,2.953371,0,nan,nan,6,0,1,18,0
67198447,1729669534799946,625764270,114027655,671282,709177,0.002500534,0.54596806,0.013999288,0.016001923,0.64990234,1.0703125,0,0,0.12074768,0.056,0.038000003,-0.1,0.59619915,0,nan,nan,6,0,1,18,0
67811929,1729669535399946,625764270,114027654,671299,709193,0.0010890961,1.5361015,0.013999288,0.016001923,0.64990234,1.0703125,0,0,0.04888763,-0.022000002,-0.015000001,0.041,-2.5431738,0,nan,nan,6,0,1,18,0
68200455,1729669535799946,625764270,114027654,671299,709194,0.0013694763,2.2195725,0.013999288,0.016001923,0.64990234,1.0703125,0,0,0.046238516,0.019000001,0.016,-0.039,0.6998929,0,nan,nan,6,0,1,18,0
68811322,1729669536399946,625764270,114027654,671293,709188,0.0017642975,135.71518,0.013999288,0.016001923,0.64990234,1.0703125,0,0,0.055118058,0.003,0.002,0.055000003,0.5880026,0,nan,nan,6,0,1,18,0
69197476,1729669536799946,625764270,114027653,671297,709192,0.00028896332,3.399568,0.013999288,0.016001923,0.64990234,1.0703125,0,0,0.015937379,0.002,0.009000001,0.013,1.3521273,0,nan,nan,6,0,1,18,0
69811209,1729669537399946,625764270,114027654,671290,709185,0.0020256042,0.70999086,0.013999288,0.016001923,0.64990234,1.0703125,0,0,0.072484486,-0.042000003,0.033,0.049000002,2.4756236,0,nan,nan,6,0,1,18,0
70196959,1729669537799947,625764270,114027653,671287,709182,0.0017642975,12.084227,0.013999288,0.016001923,0.64990234,1.0703125,0,0,0.030495903,0.011000001,-0.0050000004,0.028,-0.4266275,0,nan,nan,6,0,1,18,0
70803241,1729669538399947,625764270,114027654,671290,709185,0.0011558533,4.497483,0.013999288,0.016001923,0.64990234,1.0703125,0,0,0.032264534,-0.016,0.001,0.028,3.0791738,0,nan,nan,6,0,1,18,0
71197132,1729669538799947,625764270,114027654,671284,709179,0.0008997917,0.16977203,0.013999288,0.01699892,0.64990234,1.0703125,0,0,0.10742905,-0.058000002,-0.044000003,0.079,-2.492597,0,nan,nan,6,0,1,18,0
71807726,1729669539399947,625764270,114027654,671281,709176,0.000100016594,0.15131103,0.013999288,0.01699892,0.64990234,1.0703125,0,0,0.026019225,0.006,0.025,0.004,1.3352513,0,nan,nan,6,0,1,18,0
72193288,1729669539799947,625764270,114027654,671282,709176,0.0009608269,0.5990191,0.013999288,0.016001923,0.64990234,1.0703125,0,0,0.05731492,0.002,-0.040000003,0.041,-1.5208379,0,nan,nan,6,0,1,18,0
72809990,1729669540399947,625764270,114027655,671284,709179,0.0031356812,3.48409,0.013999288,0.016001923,0.64990234,1.0703125,0,0,0.06977822,0.030000001,0.0,0.063,0.0,0,nan,nan,6,0,1,18,0
73196562,1729669540799947,625764270,114027654,671287,709181,0.0011558533,0.45848992,0.013999288,0.016001923,0.64990234,1.0703125,0,0,0.061781876,-0.035,-0.036000002,0.036000002,-2.3421109,0,nan,nan,6,0,1,18,0
73810270,1729669541399947,625764270,114027654,671284,709179,0.0021152496,0.4512051,0.013999288,0.016001923,0.64990234,1.0703125,0,0,0.1253515,-0.068,-0.008,0.105000004,-3.024484,0,nan,nan,6,0,1,18,0
74197958,1729669541799947,625764270,114027654,671291,709186,0.0013694763,1.1836442,0.013999288,0.016001923,0.64990234,1.0703125,0,0,0.038026307,0.031000001,-0.014,-0.017,-0.4241944,0,nan,nan,6,0,1,18,0
74801634,1729669542399947,625764270,114027654,671285,709180,0.0014438629,6.941648,0.013999288,0.016001923,0.64990234,1.0703125,0,0,0.03971146,-0.008,-0.012,0.037,-2.158799,0,nan,nan,6,0,1,18,0
75196824,1729669542799947,625764270,114027654,671288,709183,0.0013694763,1.7445555,0.013999288,0.016001923,0.64990234,1.0703125,0,0,0.05906776,0.016,-0.023000002,0.052,-0.96299434,0,nan,nan,6,0,1,18,0
75796295,1729669543399947,625764269,114027654,671284,709179,0.0009608269,1.887675,0.013999288,0.016001923,0.64990234,1.0703125,0,0,0.033674918,0.0050000004,-0.022000002,-0.025,-1.3473197,0,nan,nan,6,0,1,18,0
76200142,1729669543799947,625764270,114027654,671282,709177,0.0035991669,5.749468,0.013999288,0.016001923,0.64990234,1.0703125,0,0,0.047180507,-0.025,0.001,0.040000003,3.101614,0,nan,nan,6,0,1,18,0
76808253,1729669544399947,625764270,114027655,671275,709170,0.0005288124,0.1823491,0.013999288,0.016001923,0.64990234,1.0703125,0,0,0.054304697,0.052,0.014,0.007,0.26299474,0,nan,nan,6,0,1,18,0
77198544,1729669544799947,625764270,114027654,671278,709173,0.0014438629,4.1730146,0.013999288,0.016001923,0.64990234,1.0703125,0,0,0.038755648,0.015000001,-0.011000001,0.034,-0.63274884,0,nan,nan,6,0,1,18,0
77807057,1729669545399947,625764269,114027655,671278,709173,0.0011558533,1.3119787,0.013999288,0.016001923,0.64990234,1.0703125,0,0,0.03325658,-0.025,0.016,0.015000001,2.5722795,0,nan,nan,6,0,1,18,0
78198183,1729669545799947,625764269,114027656,671268,709163,0.0023040771,9.560485,0.013999288,0.016001923,0.64990234,1.0703125,0,0,0.034669872,-0.015000001,-0.004,0.031000001,-2.8809903,0,nan,nan,6,0,1,18,0
78811991,1729669546399947,625764269,114027655,671272,709167,0.00032401085,0.19756758,0.013999288,0.016001923,0.64990234,1.0703125,0,0,0.045166362,0.038000003,-0.014,0.020000001,-0.3529904,0,nan,nan,6,0,1,18,0
79198192,1729669546799947,625764269,114027656,671273,709168,0.0012960434,1.2832112,0.013999288,0.01699892,0.64990234,1.0703125,0,0,0.06526102,-0.013,0.029000001,-0.057000004,1.9922155,0,nan,nan,6,0,1,18,0
79799025,1729669547399947,625764269,114027656,671281,709176,0.002916336,22.783873,0.013999288,0.01699892,0.64990234,1.0703125,0,0,0.063023806,0.008,-0.008,-0.062000003,-0.7853982,0,nan,nan,6,0,1,18,0
80197647,1729669547799947,625764269,114027655,671275,709170,0.0014438629,0.8584202,0.013999288,0.01699892,0.64990234,1.0703125,0,0,0.042213745,0.041,0.001,-0.010000001,0.02438541,0,nan,nan,6,0,1,18,0
80837074,1729669548399947,625764269,114027655,671286,709181,0.0022087097,5.4002676,0.013999288,0.01699892,0.64990234,1.0703125,0,0,0.027073976,-0.020000001,-0.003,0.018000001,-2.9927027,0,nan,nan,6,0,1,18,0
81196891,1729669548799947,625764269,114027655,671286,709181,0.0027046204,2.6005962,0.013999288,0.016001923,0.64990234,1.0703125,0,0,0.07345747,0.032,0.004,-0.066,0.124354996,0,nan,nan,6,0,1,18,0
81796089,1729669549399947,625764270,114027655,671282,709177,0.0010242462,0.4414855,0.013999288,0.01699892,0.64990234,1.0703125,0,0,0.050754312,0.048,-0.004,-0.016,-0.08314124,0,nan,nan,6,0,1,18,0
82193337,1729669549799947,625764270,114027654,671297,709192,0.00014400482,0.119904086,0.013999288,0.01699892,0.64990234,1.0703125,0,0,0.037013512,0.024,0.025,0.013,0.8058035,0,nan,nan,6,0,1,18,0
82808202,1729669550399947,625764270,114027654,671290,709184,0.000729084,1.1665343,0.013999288,0.01699892,0.64990234,1.0703125,0,0,0.03140064,-0.007,-0.024,-0.019000001,-1.8545904,0,nan,nan,6,0,1,18,0
83200628,1729669550799947,625764270,114027654,671292,709186,0.0012254715,1.2859092,0.013999288,0.016001923,0.64990234,1.0703125,0,0,0.042355638,0.013,-0.028,-0.029000001,-1.1361262,0,nan,nan,6,0,1,18,0
83805260,1729669551399947,625764270,114027654,671296,709190,0.0022087097,1.7029369,0.013999288,0.016001923,0.64990234,1.0703125,0,0,0.12050726,0.036000002,-0.001,-0.115,-0.027770637,0,nan,nan,6,0,1,18,0
84193413,1729669551799947,625764270,114027654,671292,709187,0.0005760193,0.8714362,0.013999288,0.016001923,0.64990234,1.0703125,0,0,0.039509494,-0.025,0.006,-0.030000001,2.9060476,0,nan,nan,6,0,1,18,0
84813974,1729669552399947,625764270,114027654,671294,709189,0.00040006638,0.39610532,0.013999288,0.016001923,0.64990234,1.0703125,0,0,0.03303029,-0.013,-0.029000001,0.009000001,-1.9922155,0,nan,nan,6,0,1,18,0
85197213,1729669552799947,625764270,114027654,671292,709187,0.0021152496,1.2494091,0.013999288,0.016001923,0.64990234,1.0703125,0,0,0.098051004,-0.037,-0.018000001,0.089,-2.6888142,0,nan,nan,6,0,1,18,0
85812142,1729669553399947,625764270,114027654,671293,709188,0.0016813278,1.7226716,0.013999288,0.016001923,0.64990234,1.0703125,0,0,0.11050793,-0.020000001,0.024,-0.106000006,2.2655346,0,nan,nan,6,0,1,18,0
86194257,1729669553799947,625764270,114027654,671295,709189,0.0012960434,5.8644495,0.013999288,0.016001923,0.6899414,1.1103516,0,0,0.05697368,-0.011000001,-0.010000001,0.055000003,-2.4037776,0,nan,nan,6,0,1,18,0
86812803,1729669554399947,625764270,114027654,671286,709181,0.0006761551,0.32934973,0.013999288,0.016001923,0.6899414,1.1103516,0,0,0.059782945,0.017,0.042000003,0.039,1.1861916,0,nan,nan,6,0,1,18,0
87201596,1729669554799947,625764270,114027654,671289,709183,0.0016813278,5.7976813,0.013999288,0.016001923,0.64990234,1.0703125,0,0,0.050931327,-0.017,0.001,0.048,3.0828369,0,nan,nan,6,0,1,18,0
87812667,1729669555399947,625764270,114027654,671291,709186,0.0013694763,2.0258524,0.013999288,0.016001923,0.64990234,1.0703125,0,0,0.03342155,0.024,-0.010000001,-0.021000002,-0.39479113,0,nan,nan,6,0,1,18,0
88203292,1729669555799947,625764270,114027654,671286,709181,0.002401352,3.122694,0.013999288,0.016001923,0.64990234,1.0703125,0,0,0.051166397,-0.012,0.025,-0.043,2.0183163,0,nan,nan,6,0,1,18,0
88812430,1729669556399947,625764270,114027654,671293,709187,0.0014438629,1.9073484,0.013999288,0.016001923,0.64990234,1.0703125,0,0,0.06149797,-0.026,-0.009000001,0.055000003,-2.8083484,0,nan,nan,6,0,1,18,0
89198081,1729669556799947,625764270,114027655,671283,709178,0.00084114075,0.9093413,0.013999288,0.016001923,0.64990234,1.0703125,0,0,0.041340053,-0.030000001,0.0050000004,0.028,2.976444,0,nan,nan,6,0,1,18,0
89802850,1729669557399947,625764270,114027654,671286,709181,0.0023040771,0.63984364,0.013999288,0.016001923,0.64990234,1.0703125,0,0,0.065007694,-0.060000002,0.001,0.025,3.1249275,0,nan,nan,6,0,1,18,0
90202955,1729669557799947,625764270,114027654,671274,709169,0.0008997917,1.9906895,0.013999288,0.01699892,0.64990234,1.0703125,0,0,0.026019225,0.014,-0.016,-0.015000001,-0.8519664,0,nan,nan,6,0,1,18,0
90816558,1729669558399947,625764270,114027655,671277,709172,0.0012960434,0.9803655,0.013999288,0.01699892,0.64990234,1.0703125,0,0,0.060216278,0.019000001,0.031000001,-0.048,1.0209432,0,nan,nan,6,0,1,18,0
91192521,1729669558799947,625764270,114027654,671275,709170,0.0005760193,1.7723669,0.013999288,0.01699892,0.64990234,1.0703125,0,0,0.018027756,0.017,-0.006,0.0,-0.3392926,0,nan,nan,6,0,1,18,0
91813432,1729669559399947,625764270,114027655,671280,709175,0.0012254715,5.7805257,0.013999288,0.01699892,0.64990234,1.0703125,0,0,0.038832977,-0.014,0.004,-0.036000002,2.863293,0,nan,nan,6,0,1,18,0
92203259,1729669559799947,625764270,114027655,671283,709178,0.0015211105,23.401697,0.013999288,0.01699892,0.64990234,1.0703125,0,0,0.059548303,0.008,0.001,0.059000004,0.124354996,0,nan,nan,6,0,1,18,0
92815074,1729669560399948,625764270,114027654,671297,709192,0.0034809113,3.5303361,0.013999288,0.01699892,0.64990234,1.0703125,0,0,0.057358522,0.025,-0.019000001,-0.048,-0.64987046,0,nan,nan,6,0,1,18,0
93807385,1729669561399948,625764270,114027653,671295,709190,0.00019598007,0.045355253,0.013999288,0.01699892,0.64990234,1.0703125,0,0,0.06815424,0.064,-0.015000001,0.018000001,-0.23021959,0,nan,nan,6,0,1,18,0
94202991,1729669561799948,625764270,114027653,671291,709185,0.0009608269,2.7218893,0.013999288,0.01699892,0.64990234,1.0703125,0,0,0.06478426,0.017,-0.008,0.062000003,-0.43984258,0,nan,nan,6,0,1,18,0
94817397,1729669562399948,625764270,114027654,671287,709182,0.0018491745,1.6378868,0.013999288,0.01699892,0.64990234,1.0703125,0,0,0.06616646,-0.027,0.020000001,0.057000004,2.5040438,0,nan,nan,6,0,1,18,0
95199694,1729669562799948,625764270,114027654,671286,709180,0.0015211105,23.401697,0.013999288,0.01699892,0.64990234,1.0703125,0,0,0.058557667,-0.008,0.001,-0.058000002,3.0172377,0,nan,nan,6,0,1,18,0
95811503,1729669563399948,625764270,114027654,671286,709181,0.00025606155,0.15757632,0.013999288,0.01699892,0.64990234,1.0703125,0,0,0.040914547,-0.0050000004,0.040000003,0.007,1.6951513,0,nan,nan,6,0,1,18,0
96200162,1729669563799948,625764270,114027653,671282,709177,0.0012254715,49.01886,0.013999288,0.016001923,0.64990234,1.0703125,0,0,0.019646885,-0.004,-0.003,0.019000001,-2.4980917,0,nan,nan,6,0,1,18,0
96817107,1729669564399948,625764270,114027653,671288,709183,0.0006761551,33.80775,0.013999288,0.01699892,0.64990234,1.0703125,0,0,0.014696939,0.004,-0.002,0.014,-0.4636476,0,nan,nan,6,0,1,18,0
97205225,1729669564799948,625764270,114027654,671283,709178,0.0007839203,0.78627896,0.013999288,0.016001923,0.64990234,1.0703125,0,0,0.06516134,0.006,0.031000001,0.057000004,1.3796118,0,nan,nan,6,0,1,18,0
97816116,1729669565399948,625764270,114027654,671293,709188,0.0010890961,7.511008,0.013999288,0.016001923,0.64990234,1.0703125,0,0,0.020024985,-0.001,0.012,-0.016,1.6539376,0,nan,nan,6,0,1,18,0
98203778,1729669565799948,625764270,114027654,671286,709181,0.00084114075,0.84114075,0.013999288,0.016001923,0.64990234,1.0703125,0,0,0.0731847,0.010000001,-0.030000001,0.066,-1.2490457,0,nan,nan,6,0,1,18,0
98815251,1729669566399948,625764271,114027654,671298,709193,0.0021152496,10.903348,0.013999288,0.016001923,0.64990234,1.0703125,0,0,0.055767376,0.013,0.0050000004,-0.054,0.36717385,0,nan,nan,6,0,1,18,0
99201489,1729669566799948,625764271,114027654,671299,709194,0.0010242462,3.9394083,0.013999288,0.016001923,0.64990234,1.0703125,0,0,0.04592385,-0.002,0.016,-0.043,1.6951513,0,nan,nan,6,0,1,18,0
99819257,1729669567399948,625764271,114027653,671294,709189,0.0014438629,0.87084615,0.013999288,0.01699892,0.64990234,1.0703125,0,0,0.049416598,0.037,0.017,-0.028,0.43069252,0,nan,nan,6,0,1,18,0
100203362,1729669567799948,625764271,114027653,671303,709198,0.0020256042,112.53357,0.013999288,0.016001923,0.64990234,1.0703125,0,0,0.02044505,0.003,-0.003,0.020000001,-0.7853982,0,nan,nan,6,0,1,18,0
100802833,1729669568399948,625764271,114027653,671305,709200,0.0012254715,0.5525118,0.013999288,0.016001923,0.64990234,1.0703125,0,0,0.08189628,0.047000002,0.003,-0.067,0.063743316,0,nan,nan,6,0,1,18,0
101216727,1729669568799948,625764270,114027653,671294,709189,0.0016813278,2.6270745,0.013999288,0.01699892,0.64990234,1.0703125,0,0,0.0829518,-0.008,-0.024,0.079,-1.8925469,0,nan,nan,6,0,1,18,0
101816960,1729669569399948,625764270,114027653,671293,709188,0.00019598007,0.18213762,0.013999288,0.016001923,0.64990234,1.0703125,0,0,0.03281768,0.020000001,0.026,-0.001,0.9151007,0,nan,nan,6,0,1,18,0
102207053,1729669569799948,625764270,114027654,671282,709177,0.0014438629,3.9996202,0.013999288,0.01699892,0.64990234,1.0703125,0,0,0.0734983,0.0,-0.019000001,0.071,-1.5707964,0,nan,nan,6,0,1,18,0
102821528,1729669570399948,625764270,114027654,671282,709177,0.0015211105,3.085417,0.013999288,0.01699892,0.64990234,1.0703125,0,0,0.041448765,-0.018000001,0.013,-0.035,2.5161076,0,nan,nan,6,0,1,18,0
103202162,1729669570799948,625764270,114027654,671279,709174,0.00040006638,0.33311102,0.013999288,0.01699892,0.64990234,1.0703125,0,0,0.040012497,0.025,-0.024,0.020000001,-0.76499283,0,nan,nan,6,0,1,18,0
103815298,1729669571399948,625764271,114027654,671283,709178,0.0019359589,5.813689,0.013999288,0.01699892,0.64990234,1.0703125,0,0,0.034263685,0.018000001,0.003,-0.029000001,0.16514866,0,nan,nan,6,0,1,18,0
104204067,1729669571799948,625764271,114027654,671274,709169,0.000729084,0.5360911,0.013999288,0.01699892,0.64990234,1.0703125,0,0,0.048826225,0.008,0.036000002,0.032,1.3521273,0,nan,nan,6,0,1,18,0
104817085,1729669572399948,625764271,114027654,671283,709178,0.0019359589,14.891989,0.013999288,0.01699892,0.64990234,1.0703125,0,0,0.13747364,0.007,0.009000001,-0.13700001,0.90975314,0,nan,nan,6,0,1,18,0
105203299,1729669572799948,625764271,114027654,671282,709176,0.00014400482,0.21397446,0.013999288,0.016001923,0.64990234,1.0703125,0,0,0.026870059,0.012,-0.023000002,0.007,-1.0899091,0,nan,nan,6,0,1,18,0
105818657,1729669573399948,625764271,114027654,671283,709178,0.0008997917,0.72916675,0.013999288,0.016001923,0.64990234,1.0703125,0,0,0.038600516,0.035,-0.003,-0.016,-0.0855053,0,nan,nan,6,0,1,18,0
106202214,1729669573799948,625764271,114027653,671290,709185,0.0031356812,69.6818,0.013999288,0.016001923,0.64990234,1.0703125,0,0,0.06335614,0.006,0.003,-0.063,0.4636476,0,nan,nan,6,0,1,18,0
106815158,1729669574399948,625764271,114027654,671283,709178,0.0016813278,6.3446317,0.013999288,0.016001923,0.64990234,1.0703125,0,0,0.055443667,0.003,0.016,-0.053000003,1.3854483,0,nan,nan,6,0,1,18,0
107203280,1729669574799948,625764271,114027654,671288,709183,0.0044898987,62.359703,0.013999288,0.016001923,0.64990234,1.0703125,0,0,0.13626446,0.006,0.006,-0.136,0.7853982,0,nan,nan,6,0,1,18,0
107816904,1729669575399948,625764270,114027654,671276,709171,0.0021152496,0.710292,0.013999288,0.016001923,0.64990234,1.0703125,0,0,0.11304425,-0.053000003,0.013,0.09900001,2.9010584,0,nan,nan,6,0,1,18,0
108201999,1729669575799948,625764270,114027654,671280,709175,0.00084114075,1.374413,0.013999288,0.016001923,0.64990234,1.0703125,0,0,0.028425341,-0.024,-0.006,0.014,-2.896614,0,nan,nan,6,0,1,18,0
108807231,1729669576399948,625764270,114027654,671279,709174,0.0023040771,11.695823,0.013999288,0.016001923,0.64990234,1.0703125,0,0,0.047138095,0.014,0.001,-0.045,0.071307465,0,nan,nan,6,0,1,18,0
109202875,1729669576799948,625764270,114027654,671280,709175,0.0009608269,9.064403,0.013999288,0.01699892,0.64990234,1.0703125,0,0,0.071742594,0.009000001,-0.0050000004,-0.071,-0.5070985,0,nan,nan,6,0,1,18,0
109815445,1729669577399948,625764270,114027654,671282,709177,0.0022087097,59.694855,0.013999288,0.01699892,0.64990234,1.0703125,0,0,0.058318097,-0.001,0.006,0.058000002,1.735945,0,nan,nan,6,0,1,18,0
110192689,1729669577799948,625764270,114027654,671282,709177,0.0023040771,25.888504,0.013999288,0.016001923,0.64990234,1.0703125,0,0,0.05974948,-0.0050000004,-0.008,-0.059000004,-2.1293955,0,nan,nan,6,0,1,18,0
110815166,1729669578399948,625764271,114027654,671286,709181,0.0016002655,1.6312594,0.013999288,0.016001923,0.64990234,1.0703125,0,0,0.042011905,0.009000001,-0.030000001,0.028,-1.2793396,0,nan,nan,6,0,1,18,0
111203518,1729669578799948,625764270,114027654,671276,709171,0.0021152496,13.825162,0.013999288,0.016001923,0.64990234,1.0703125,0,0,0.042825226,-0.003,-0.012,-0.041,-1.8157749,0,nan,nan,6,0,1,18,0
111817254,1729669579399948,625764271,114027654,671271,709166,0.0006251335,3.6990147,0.013999288,0.01699892,0.64990234,1.0703125,0,0,0.013601471,0.0050000004,0.012,-0.004,1.1760051,0,nan,nan,6,0,1,18,0
112203685,1729669579799948,625764270,114027654,671270,709164,0.002500534,7.164852,0.013999288,0.01699892,0.64990234,1.0703125,0,0,0.03449638,-0.018000001,0.0050000004,0.029000001,2.8706458,0,nan,nan,6,0,1,18,0
112816378,1729669580399948,625764270,114027654,671274,709169,0.0011558533,0.39638317,0.013999288,0.01699892,0.64990234,1.0703125,0,0,0.067801185,0.054,0.0,-0.041,0.0,0,nan,nan,6,0,1,18,0
113204318,1729669580799948,625764270,114027655,671267,709162,0.0016002655,30.774336,0.013999288,0.01699892,0.64990234,1.0703125,0,0,0.051507283,-0.006,-0.004,-0.051000003,-2.55359,0,nan,nan,6,0,1,18,0
113823111,1729669581399948,625764270,114027655,671263,709157,0.0021152496,1.0087026,0.013999288,0.01699892,0.64990234,1.0703125,0,0,0.108171165,-0.039,-0.024,0.098000005,-2.5899377,0,nan,nan,6,0,1,18,0
114201094,1729669581799948,625764271,114027655,671271,709166,0.0023040771,0.35075,0.013999288,0.01699892,0.64990234,1.0703125,0,0,0.14897652,0.080000006,-0.013,-0.125,-0.1610919,0,nan,nan,6,0,1,18,0
114825213,1729669582399948,625764270,114027654,671259,709154,0.002916336,39.409946,0.013999288,0.01699892,0.64990234,1.0703125,0,0,0.054680895,0.0050000004,-0.007,-0.054,-0.95054686,0,nan,nan,6,0,1,18,0
115215325,1729669582799949,625764270,114027655,671267,709162,0.0026016235,76.518326,0.013999288,0.01699892,0.64990234,1.0703125,0,0,0.074229375,-0.003,-0.0050000004,-0.074,-2.1112156,0,nan,nan,6,0,1,18,0
115820362,1729669583399949,625764270,114027654,671265,709159,0.0016813278,6.947634,0.013999288,0.01699892,0.64990234,1.0703125,0,0,0.074639134,-0.011000001,-0.011000001,0.07300001,-2.3561945,0,nan,nan,6,0,1,18,0
116204550,1729669583799949,625764270,114027655,671267,709162,0.0021152496,39.91037,0.013999288,0.01699892,0.64990234,1.0703125,0,0,0.043611925,0.007,0.002,0.043,0.27829966,0,nan,nan,6,0,1,18,0
116816998,1729669584399949,625764270,114027654,671273,709168,0.00014400482,0.0701436,0.013999288,0.01699892,0.64990234,1.0703125,0,0,0.045705583,-0.017,0.042000003,-0.006,1.9554011,0,nan,nan,6,0,1,18,0
117204254,1729669584799949,625764270,114027655,671264,709159,0.0015211105,4.2019625,0.013999288,0.01699892,0.64990234,1.0703125,0,0,0.051633324,-0.019000001,0.001,0.048,3.0890095,0,nan,nan,6,0,1,18,0
117818443,1729669585399949,625764270,114027655,671281,709176,0.0043563843,128.12894,0.013999288,0.018999098,0.64990234,1.0703125,0,0,0.022759616,-0.003,-0.0050000004,0.022000002,-2.1112156,0,nan,nan,6,0,1,17,0
118202159,1729669585799949,625764270,114027654,671287,709182,0.0006251335,2.694541,0.013999288,0.018000301,0.6899414,1.0996094,0,0,0.018220868,-0.006,-0.014,-0.010000001,-1.9756881,0,nan,nan,6,0,1,18,0
118816187,1729669586399949,625764270,114027654,671280,709175,0.0011558533,2.5742834,0.013999288,0.018999098,0.6899414,1.0996094,0,0,0.022315916,-0.020000001,-0.007,0.007,-2.8049178,0,nan,nan,6,0,1,18,0
119203501,1729669586799949,625764270,114027653,671275,709170,0.0012960434,6.3221626,0.013999288,0.018000301,0.64990234,1.0703125,0,0,0.022226112,-0.006,-0.013,-0.017,-2.0032039,0,nan,nan,6,0,1,18,0
119815121,1729669587399949,625764271,114027653,671276,709171,0.002500534,1.791213,0.013999288,0.01699892,0.64990234,1.0703125,0,0,0.11239217,0.036000002,-0.010000001,0.106000006,-0.27094686,0,nan,nan,6,0,1,18,0
120818241,1729669588399949,625764271,114027654,671274,709168,0.004623413,2.1757233,0.013999288,0.018999098,0.64990234,1.0703125,0,0,0.07887332,-0.042000003,0.019000001,0.064,2.7167604,0,nan,nan,6,0,1,18,0
121205411,1729669588799949,625764271,114027654,671270,709165,0.0034809113,0.66164434,0.013999288,0.018999098,0.64990234,1.0703125,0,0,0.09224967,-0.07,-0.019000001,0.057000004,-2.8765497,0,nan,nan,6,0,1,18,0
121820149,1729669589399949,625764270,114027654,671277,709172,0.0007839203,0.13368353,0.013999288,0.018999098,0.64990234,1.0703125,0,0,0.083384655,-0.058000002,0.05,-0.033,2.4301336,0,nan,nan,6,0,1,18,0
122203844,1729669589799949,625764270,114027654,671270,709164,0.0023040771,0.92015857,0.013999288,0.018000301,0.64990234,1.0595703,0,0,0.0781281,0.05,-0.002,-0.060000002,-0.03997869,0,nan,nan,6,0,1,18,0
122817313,1729669590399949,625764271,114027654,671282,709176,0.003967285,30.994411,0.013999288,0.018000301,0.64990234,1.0595703,0,0,0.063023806,-0.008,-0.008,-0.062000003,-2.3561945,0,nan,nan,6,0,1,18,0
123200200,1729669590799949,625764270,114027654,671274,709169,0.0016813278,3.6235511,0.013999288,0.018000301,0.64990234,1.0595703,0,0,0.041097447,-0.020000001,0.008,0.035,2.7610862,0,nan,nan,6,0,1,18,0
123805280,1729669591399949,625764270,114027654,671273,709168,0.00028896332,0.3667047,0.013999288,0.018000301,0.64990234,1.0595703,0,0,0.037589893,0.028,-0.002,0.025,-0.071307465,0,nan,nan,6,0,1,18,0
124203236,1729669591799949,625764270,114027654,671271,709166,0.00084114075,0.66969794,0.013999288,0.018000301,0.64990234,1.0595703,0,0,0.036331806,-0.034,-0.010000001,0.008,-2.8555412,0,nan,nan,6,0,1,18,0
124618839,1729669592199949,625764270,114027655,671274,709169,0.0012254715,0.42654762,0.013999288,0.018000301,0.64990234,1.0595703,0,0,0.05832667,-0.053000003,0.008,0.023000002,2.9917803,0,nan,nan,6,0,1,18,0
125202246,1729669592799949,625764270,114027654,671265,709159,0.000729084,12.570414,0.013999288,0.018000301,0.64990234,1.0595703,0,0,0.015066519,-0.003,0.007,-0.013,1.9756881,0,nan,nan,6,0,1,18,0
125611177,1729669593199949,625764271,114027654,671269,709164,0.004096985,2.2597816,0.013999288,0.018000301,0.64990234,1.0595703,0,0,0.092395894,0.042000003,-0.007,-0.082,-0.16514866,0,nan,nan,6,0,1,18,0
126205058,1729669593799949,625764271,114027654,671269,709164,0.004096985,6.1981616,0.013999288,0.018000301,0.64990234,1.0595703,0,0,0.07269801,0.025,-0.006,-0.068,-0.23554498,0,nan,nan,6,0,1,18,0
126820246,1729669594399949,625764270,114027654,671263,709158,0.0027046204,4.4704466,0.013999288,0.018000301,0.64990234,1.0595703,0,0,0.03579106,0.011000001,0.022000002,-0.026,1.1071488,0,nan,nan,6,0,1,18,0
127200217,1729669594799949,625764270,114027654,671265,709160,0.0016002655,1.6312594,0.013999288,0.018000301,0.64990234,1.0595703,0,0,0.0812773,0.030000001,-0.009000001,-0.075,-0.29145682,0,nan,nan,6,0,1,18,0
127812263,1729669595399949,625764270,114027654,671271,709166,0.0014438629,2.3101807,0.013999288,0.018000301,0.64990234,1.0595703,0,0,0.03535534,-0.020000001,-0.015000001,0.025,-2.4980917,0,nan,nan,6,0,1,18,0
128204171,1729669595799949,625764270,114027654,671271,709166,0.0038433075,11.82556,0.013999288,0.018000301,0.64990234,1.0595703,0,0,0.031638585,-0.017,0.006,0.026,2.8023,0,nan,nan,6,0,1,18,0
128816969,1729669596399949,625764270,114027654,671273,709168,0.00032401085,0.24658361,0.013999288,0.018000301,0.64990234,1.0595703,0,0,0.03923009,-0.033,0.015000001,-0.015000001,2.714965,0,nan,nan,6,0,1,18,0
129192203,1729669596799949,625764270,114027655,671276,709171,0.0012960434,2.0604825,0.013999288,0.018000301,0.64990234,1.0595703,0,0,0.050645832,0.002,0.025,0.044000003,1.4909663,0,nan,nan,6,0,1,18,0
129817039,1729669597399949,625764270,114027654,671275,709170,0.0011558533,0.32669675,0.013999288,0.018000301,0.64990234,1.0595703,0,0,0.07580897,-0.057000004,-0.017,0.047000002,-2.851746,0,nan,nan,6,0,1,18,0
130203356,1729669597799949,625764270,114027655,671278,709173,0.0016002655,16.497581,0.013999288,0.01699892,0.64990234,1.0595703,0,0,0.023194829,0.009000001,-0.004,-0.021000002,-0.41822433,0,nan,nan,6,0,1,18,0
130817670,1729669598399949,625764270,114027655,671276,709171,0.0012254715,24.509426,0.013999288,0.01699892,0.64990234,1.0595703,0,0,0.021213206,0.0050000004,-0.0050000004,0.020000001,-0.7853982,0,nan,nan,6,0,1,18,0
131205559,1729669598799949,625764270,114027654,671279,709174,0.0010242462,1.6736048,0.013999288,0.01699892,0.64990234,1.0595703,0,0,0.05047772,0.006,-0.024,-0.044000003,-1.3258177,0,nan,nan,6,0,1,18,0
131817270,1729669599399949,625764270,114027654,671278,709172,0.0015211105,20.555548,0.013999288,0.01699892,0.64990234,1.0595703,0,0,0.022693614,0.0050000004,0.007,-0.021000002,0.95054686,0,nan,nan,6,0,1,18,0
132202373,1729669599799949,625764271,114027654,671274,709168,0.0007839203,8.710224,0.013999288,0.01699892,0.64990234,1.0595703,0,0,0.0239583,0.003,0.009000001,0.022000002,1.2490458,0,nan,nan,6,0,1,18,0
132814826,1729669600399949,625764271,114027654,671284,709179,0.00022494793,0.48480153,0.013999288,0.01699892,0.64990234,1.0595703,0,0,0.022649504,-0.020000001,-0.008,-0.007,-2.7610862,0,nan,nan,6,0,1,18,0
133201982,1729669600799949,625764271,114027653,671276,709171,0.0011558533,1.4724243,0.013999288,0.016001923,0.64990234,1.0595703,0,0,0.06803676,0.023000002,-0.016,0.062000003,-0.607802,0,nan,nan,6,0,1,18,0
133823040,1729669601399949,625764271,114027653,671273,709168,0.0012960434,3.5508034,0.013999288,0.01699892,0.64990234,1.0595703,0,0,0.03307567,0.014,-0.013,0.027,-0.74837804,0,nan,nan,6,0,1,18,0
134203185,1729669601799949,625764271,114027653,671265,709160,0.0034809113,20.475948,0.013999288,0.01699892,0.64990234,1.0595703,0,0,0.15455097,-0.013,0.001,0.15400001,3.0648208,0,nan,nan,6,0,1,18,0
134817584,1729669602399949,625764270,114027654,671284,709178,0.0016002655,0.7287183,0.013999288,0.01699892,0.64990234,1.0595703,0,0,0.05618719,-0.036000002,0.030000001,0.031000001,2.4468544,0,nan,nan,6,0,1,18,0
135206473,1729669602799949,625764270,114027654,671284,709178,0.0019359589,0.8009759,0.013999288,0.01699892,0.64990234,1.0595703,0,0,0.083102345,-0.049000002,0.004,0.067,3.0601406,0,nan,nan,6,0,1,18,0
135822365,1729669603399949,625764270,114027654,671280,709174,0.00028896332,0.19928505,0.013999288,0.01699892,0.64990234,1.0595703,0,0,0.038131353,0.015000001,-0.035,-0.002,-1.1659045,0,nan,nan,6,0,1,18,0
136205079,1729669603799949,625764270,114027654,671279,709174,0.002500534,1.9234874,0.013999288,0.01699892,0.64990234,1.0595703,0,0,0.055353414,0.034,0.012,-0.042000003,0.3392926,0,nan,nan,6,0,1,18,0
136817162,1729669604399949,625764270,114027654,671281,709176,0.00040006638,1.0812604,0.013999288,0.01699892,0.64990234,1.0595703,0,0,0.020149443,-0.009000001,-0.017,0.006,-2.0576954,0,nan,nan,6,0,1,18,0
137204873,1729669604799949,625764270,114027653,671291,709185,0.00036096573,0.45519003,0.013999288,0.01699892,0.64990234,1.0595703,0,0,0.029274564,0.028,0.003,0.008,0.10673568,0,nan,nan,6,0,1,18,0
137815248,1729669605399949,625764270,114027653,671293,709188,0.0010890961,21.781918,0.013999288,0.01699892,0.64990234,1.0595703,0,0,0.008124039,-0.0050000004,0.0050000004,0.004,2.3561945,0,nan,nan,6,0,1,18,0
138203681,1729669605799950,625764270,114027653,671285,709179,0.0007839203,0.22888182,0.013999288,0.01699892,0.66015625,1.0800781,0,0,0.06325346,0.055000003,-0.020000001,-0.024,-0.348771,0,nan,nan,6,0,1,18,0
138813522,1729669606399950,625764270,114027654,671283,709178,0.00036096573,0.2925168,0.013999288,0.01699892,0.66015625,1.0800781,0,0,0.03902563,-0.003,-0.035,-0.017,-1.6563016,0,nan,nan,6,0,1,18,0
139205057,1729669606799950,625764270,114027653,671288,709182,0.0026016235,21.32478,0.013999288,0.016001923,0.66015625,1.0800781,0,0,0.021977263,-0.011000001,0.001,0.019000001,3.050933,0,nan,nan,6,0,1,18,0
139817654,1729669607399950,625764270,114027654,671291,709186,0.0020256042,0.40055448,0.013999288,0.01699892,0.66015625,1.0800781,0,0,0.09369099,0.071,-0.004,-0.061000004,-0.056278538,0,nan,nan,6,0,1,18,0
140206666,1729669607799950,625764270,114027654,671289,709183,0.0027046204,4.8556914,0.013999288,0.01699892,0.64990234,1.0595703,0,0,0.052592777,-0.014,-0.019000001,0.047000002,-2.205823,0,nan,nan,6,0,1,18,0
140820120,1729669608399950,625764270,114027654,671277,709172,0.0026016235,0.88130873,0.013999288,0.01699892,0.64990234,1.0595703,0,0,0.09670575,-0.054,-0.006,0.080000006,-3.0309355,0,nan,nan,6,0,1,18,0
141204990,1729669608799950,625764270,114027654,671273,709168,0.0027046204,2.331569,0.013999288,0.01699892,0.64990234,1.0595703,0,0,0.052535705,-0.026,-0.022000002,0.040000003,-2.4393358,0,nan,nan,6,0,1,18,0
141819221,1729669609399950,625764270,114027654,671278,709172,0.003025055,2.9512727,0.013999288,0.01699892,0.64990234,1.0595703,0,0,0.052810986,0.031000001,-0.008,-0.042000003,-0.25255427,0,nan,nan,6,0,1,18,0
142202987,1729669609799950,625764270,114027654,671279,709174,0.000100016594,0.20287344,0.013999288,0.01699892,0.64990234,1.0595703,0,0,0.022203606,-0.013,0.018000001,0.0,2.1962814,0,nan,nan,6,0,1,18,0
142808318,1729669610399950,625764270,114027654,671279,709173,0.0008997917,1.9226315,0.013999288,0.01699892,0.64990234,1.0595703,0,0,0.03231099,-0.012,-0.018000001,-0.024,-2.158799,0,nan,nan,6,0,1,18,0
143203222,1729669610799950,625764270,114027654,671281,709175,0.00022494793,0.32839108,0.013999288,0.01699892,0.64990234,1.0595703,0,0,0.029681647,0.019000001,-0.018000001,0.014,-0.75837773,0,nan,nan,6,0,1,18,0
143817265,1729669611399950,625764270,114027654,671276,709171,0.0028095245,2.3028889,0.013999288,0.01699892,0.64990234,1.0595703,0,0,0.056964904,-0.034,0.008,0.045,2.910502,0,nan,nan,6,0,1,18,0
144193484,1729669611799950,625764270,114027654,671277,709172,0.0010242462,14.0307665,0.013999288,0.01699892,0.64990234,1.0595703,0,0,0.019026298,-0.008,0.003,-0.017,2.782822,0,nan,nan,6,0,1,18,0
144816838,1729669612399950,625764270,114027654,671276,709170,0.0018491745,5.438748,0.013999288,0.01699892,0.64990234,1.0595703,0,0,0.0608605,-0.012,0.014,0.058000002,2.2794225,0,nan,nan,6,0,1,18,0
145211076,1729669612799950,625764270,114027655,671271,709166,0.0035991669,2.916667,0.013999288,0.01699892,0.64990234,1.0595703,0,0,0.07126009,0.035,0.003,-0.062000003,0.0855053,0,nan,nan,6,0,1,18,0
145817857,1729669613399950,625764270,114027654,671267,709161,0.0043563843,87.12767,0.013999288,0.01699892,0.64990234,1.0595703,0,0,0.022158522,0.0050000004,-0.0050000004,-0.021000002,-0.7853982,0,nan,nan,6,0,1,18,0
146206658,1729669613799950,625764270,114027654,671273,709168,0.0006251335,0.35119852,0.013999288,0.01699892,0.64990234,1.0595703,0,0,0.056115955,-0.042000003,0.004,-0.037,3.0466409,0,nan,nan,6,0,1,18,0
146813422,1729669614399950,625764270,114027655,671270,709165,0.0013694763,0.8575305,0.013999288,0.01699892,0.64990234,1.0595703,0,0,0.057974137,-0.034,-0.021000002,0.042000003,-2.5882983,0,nan,nan,6,0,1,18,0
147203036,1729669614799950,625764270,114027655,671273,709168,0.00022494793,0.10794044,0.013999288,0.01699892,0.64990234,1.0595703,0,0,0.04673329,0.022000002,0.040000003,0.010000001,1.0679531,0,nan,nan,6,0,1,18,0
147817628,1729669615399950,625764270,114027654,671269,709163,0.0021152496,28.584454,0.013999288,0.01699892,0.64990234,1.0595703,0,0,0.027386129,0.0050000004,0.007,0.026,0.95054686,0,nan,nan,6,0,1,18,0
148197842,1729669615799950,625764270,114027654,671273,709167,0.0014438629,0.91790396,0.013999288,0.01699892,0.64990234,1.0595703,0,0,0.07785885,0.033,-0.022000002,-0.067,-0.5880027,0,nan,nan,6,0,1,18,0
148818490,1729669616399950,625764270,114027654,671274,709169,0.00014400482,0.1404925,0.013999288,0.01699892,0.64990234,1.0595703,0,0,0.03277194,-0.032,-0.001,-0.007,-3.1103528,0,nan,nan,6,0,1,18,0
149202042,1729669616799950,625764270,114027654,671268,709163,0.0012254715,7.2513103,0.013999288,0.01699892,0.64990234,1.0595703,0,0,0.033615474,0.012,-0.0050000004,0.031000001,-0.39479113,0,nan,nan,6,0,1,18,0
149813452,1729669617399950,625764270,114027654,671270,709165,0.00016903877,0.13754171,0.013999288,0.01699892,0.64990234,1.0595703,0,0,0.03674235,0.035,0.002,0.011000001,0.057080787,0,nan,nan,6,0,1,18,0
150203538,1729669617799950,625764270,114027654,671273,709168,0.002401352,4.3820286,0.013999288,0.01699892,0.64990234,1.0595703,0,0,0.041279536,0.022000002,0.008,-0.034,0.34877098,0,nan,nan,6,0,1,18,0
150820039,1729669618399950,625764270,114027654,671276,709171,0.0013694763,1.3005471,0.013999288,0.01699892,0.64990234,1.0595703,0,0,0.06997857,0.027,0.018000001,-0.062000003,0.5880026,0,nan,nan,6,0,1,18,0
151203112,1729669618799950,625764270,114027654,671270,709165,0.0016002655,30.774336,0.013999288,0.01699892,0.64990234,1.0595703,0,0,0.03280244,0.004,0.006,0.032,0.98279375,0,nan,nan,6,0,1,18,0
151817268,1729669619399950,625764270,114027655,671264,709159,0.0005288124,1.0471531,0.013999288,0.01699892,0.64990234,1.0595703,0,0,0.033615474,0.012,0.019000001,0.025,1.00748,0,nan,nan,6,0,1,18,0
152206948,1729669619799950,625764270,114027655,671260,709155,0.00048398972,0.4777785,0.013999288,0.01699892,0.64990234,1.0595703,0,0,0.038131356,-0.023000002,-0.022000002,-0.021000002,-2.3784132,0,nan,nan,6,0,1,18,0
152819820,1729669620399950,625764270,114027654,671270,709164,0.0012960434,9.52973,0.013999288,0.01699892,0.64990234,1.0595703,0,0,0.03312099,-0.010000001,-0.006,-0.031000001,-2.6011732,0,nan,nan,6,0,1,18,0
153204874,1729669620799950,625764270,114027655,671274,709169,0.0023040771,0.5273693,0.013999288,0.016001923,0.64990234,1.0595703,0,0,0.099221975,0.065000005,0.012,-0.074,0.18255985,0,nan,nan,6,0,1,18,0
153820643,1729669621399950,625764270,114027655,671269,709164,0.00048398972,0.35250524,0.013999288,0.01699892,0.64990234,1.0595703,0,0,0.04767599,0.037,-0.002,0.030000001,-0.054001503,0,nan,nan,6,0,1,18,0
154817152,1729669622399950,625764270,114027655,671272,709167,0.0013694763,47.223316,0.013999288,0.016001923,0.64990234,1.0595703,0,0,0.051283527,0.0050000004,-0.002,-0.051000003,-0.38050637,0,nan,nan,6,0,1,18,0
155205999,1729669622799950,625764270,114027655,671275,709170,0.0007839203,0.9885501,0.013999288,0.016001923,0.64990234,1.0595703,0,0,0.049739324,0.028,-0.003,0.041,-0.10673568,0,nan,nan,6,0,1,18,0
155820246,1729669623399950,625764270,114027654,671271,709166,0.0015211105,1.3878745,0.013999288,0.016001923,0.64990234,1.0595703,0,0,0.04272002,-0.030000001,-0.014,0.027,-2.7049656,0,nan,nan,6,0,1,18,0
156202783,1729669623799950,625764270,114027654,671265,709160,0.002500534,5.569118,0.013999288,0.016001923,0.64990234,1.0595703,0,0,0.10515703,-0.007,0.020000001,0.10300001,1.9074711,0,nan,nan,6,0,1,18,0
156815146,1729669624399950,625764270,114027654,671276,709171,0.0018491745,2.4821134,0.013999288,0.016001923,0.64990234,1.0595703,0,0,0.050931327,0.013,0.024,-0.043,1.0743736,0,nan,nan,6,0,1,18,0
157205241,1729669624799950,625764270,114027655,671270,709165,0.0006761551,0.71249205,0.013999288,0.016001923,0.64990234,1.0595703,0,0,0.034263685,0.018000001,-0.025,-0.015000001,-0.94677323,0,nan,nan,6,0,1,18,0
157807015,1729669625399950,625764270,114027654,671276,709171,0.0005288124,0.54799217,0.013999288,0.016001923,0.64990234,1.0595703,0,0,0.03263434,0.017,-0.026,-0.010000001,-0.99172205,0,nan,nan,6,0,1,18,0
158203150,1729669625799950,625764270,114027655,671270,709165,0.0007839203,0.64626557,0.013999288,0.016001923,0.64990234,1.0595703,0,0,0.036235344,-0.027,0.022000002,0.010000001,2.4578834,0,nan,nan,6,0,1,18,0
158813248,1729669626399950,625764270,114027654,671275,709170,0.0015211105,3.5790837,0.013999288,0.016001923,0.64990234,1.0595703,0,0,0.0835823,-0.019000001,-0.008,-0.081,-2.7430701,0,nan,nan,6,0,1,18,0
159198821,1729669626799950,625764270,114027654,671284,709178,0.00044107437,0.7230726,0.013999288,0.016001923,0.64990234,1.0595703,0,0,0.038091995,-0.021000002,-0.013,-0.029000001,-2.5872853,0,nan,nan,6,0,1,18,0
159619905,1729669627199950,625764270,114027654,671280,709174,0.0010242462,20.484924,0.013999288,0.016001923,0.64990234,1.0595703,0,0,0.039635845,0.007,-0.001,-0.039,-0.14189707,0,nan,nan,6,0,1,18,0
160205134,1729669627799950,625764271,114027654,671278,709173,0.0020256042,1.7387158,0.013999288,0.016001923,0.64990234,1.0595703,0,0,0.13343914,0.018000001,0.029000001,-0.12900001,1.0153025,0,nan,nan,6,0,1,18,0
160617187,1729669628199950,625764270,114027653,671280,709175,0.0010890961,0.44911176,0.013999288,0.016001923,0.64990234,1.0595703,0,0,0.10611787,-0.011000001,-0.048,0.094000004,-1.7960731,0,nan,nan,6,0,1,18,0
161203451,1729669628799950,625764271,114027654,671276,709171,0.0016813278,1.0482091,0.013999288,0.016001923,0.64990234,1.0595703,0,0,0.07549835,0.040000003,0.002,-0.064,0.049958393,0,nan,nan,6,0,1,18,0
161810237,1729669629399951,625764271,114027654,671281,709176,0.0011558533,5.1371245,0.013999288,0.016001923,0.64990234,1.0595703,0,0,0.04459821,-0.012,-0.009000001,-0.042000003,-2.4980915,0,nan,nan,6,0,1,18,0
162205128,1729669629799951,625764271,114027654,671280,709175,0.003025055,1.3101146,0.013999288,0.016001923,0.64990234,1.0595703,0,0,0.08823265,-0.047000002,0.010000001,0.074,2.9319527,0,nan,nan,6,0,1,18,0
162821519,1729669630399951,625764271,114027654,671275,709170,0.0023040771,2.1736574,0.013999288,0.016001923,0.64990234,1.0595703,0,0,0.044955537,-0.022000002,0.024,0.031000001,2.3127437,0,nan,nan,6,0,1,18,0
163194632,1729669630799951,625764271,114027655,671277,709172,0.0018491745,0.69938517,0.013999288,0.016001923,0.64990234,1.0595703,0,0,0.06639277,0.05,0.012,-0.042000003,0.23554498,0,nan,nan,6,0,1,18,0
